[

	{
		"name" : "Enoteca",
		"category" : "Italian,Mediterranean,European,Vegetarian Friendly",
		"rating" : "5",
		"location" : {
			"latitude" : 50.911446,
			"longtitude" : 1.405777
		}
	},
	{
		"name" : "Max`s Bar and Brasserie",
		"category" : "Italian,Mediterranean,British,Seafood,European,Gluten Free Options",
		"rating" : "5",
		"location" : {
			"latitude" : 50.89791,
			"longtitude" : 1.397692
		}
	},
	{
		"name" : "Bacaro",
		"category" : "Italian,Mediterranean,European,Vegetarian Friendly,Gluten Free Options",
		"rating" : "5",
		"location" : {
			"latitude" : 50.89726,
			"longtitude" : 1.391911
		}
	},
	{
		"name" : "Quay FIFTEEN",
		"category" : "European,British",
		"rating" : "5",
		"location" : {
			"latitude" : 50.910034,
			"longtitude" : 1.381381
		}
	},
	{
		"name" : "Sulas Greek Taverna",
		"category" : "Mediterranean,Greek",
		"rating" : "4.5",
		"location" : {
			"latitude" : 50.923756,
			"longtitude" : 1.394699
		}
	},
	{
		"name" : "Kohinoor of Kerala",
		"category" : "Indian,Asian,Vegetarian Friendly,Halal,Gluten Free Options",
		"rating" : "4.5",
		"location" : {
			"latitude" : 50.925354,
			"longtitude" : 1.393084
		}
	},
	{
		"name" : "Greg's Bistro",
		"category" : "Italian,French,Seafood,Mediterranean,European,British,Gluten Free Options",
		"rating" : "4.5",
		"location" : {
			"latitude" : 50.908863,
			"longtitude" : 1.409378
		}
	},
	{
		"name" : "Blue Island",
		"category" : "Mediterranean,Greek",
		"rating" : "4.5",
		"location" : {
			"latitude" : 50.909077,
			"longtitude" : 1.404808
		}
	},
	{
		"name" : "The Oxford Brasserie",
		"category" : "Italian,French,European,British,Gluten Free Options",
		"rating" : "4.5",
		"location" : {
			"latitude" : 50.898064,
			"longtitude" : 1.397553
		}
	},
	{
		"name" : "Everest Cuisine",
		"category" : "Indian,Asian,Eastern European,Vegetarian Friendly,Vegan Options,Gluten Free Options",
		"rating" : "4.5",
		"location" : {
			"latitude" : 50.89822,
			"longtitude" : 1.401716
		}
	},
	{
		"name" : "Ceno",
		"category" : "European,British",
		"rating" : "4.5",
		"location" : {
			"latitude" : 50.927414,
			"longtitude" : 1.391728
		}
	},
	{
		"name" : "Lakaz Maman",
		"category" : "International,Fusion,Healthy,Street Food,Vegetarian Friendly,Gluten Free Options",
		"rating" : "4.5",
		"location" : {
			"latitude" : 50.912064,
			"longtitude" : 1.406188
		}
	},
	{
		"name" : "It's A Pizza Thing",
		"category" : "Italian,Pizza,Fast food",
		"rating" : "5",
		"location" : {
			"latitude" : 50.921898,
			"longtitude" : 1.387474
		}
	},
	{
		"name" : "Pho Vietnam",
		"category" : "Asian,Vietnamese,Gluten Free Options",
		"rating" : "4.5",
		"location" : {
			"latitude" : 50.925423,
			"longtitude" : 1.393208
		}
	},
	{
		"name" : "The Rockstone",
		"category" : "American,British,Pub,Gluten Free Options",
		"rating" : "4.5",
		"location" : {
			"latitude" : 50.91517,
			"longtitude" : 1.39764
		}
	},
	{
		"name" : "La Tavernetta",
		"category" : "Italian,Pizza",
		"rating" : "4.5",
		"location" : {
			"latitude" : 50.90678,
			"longtitude" : 1.405283
		}
	},
	{
		"name" : "Piccolo Mondo",
		"category" : "Italian,Pizza",
		"rating" : "4.5",
		"location" : {
			"latitude" : 50.90653,
			"longtitude" : 1.405
		}
	},
	{
		"name" : "Brewery bar",
		"category" : "British,Pub,Gluten Free Options",
		"rating" : "4.5",
		"location" : {
			"latitude" : 50.914738,
			"longtitude" : 1.2698
		}
	},
	{
		"name" : "Grand Cafe",
		"category" : "British,Soups,International,Gluten Free Options",
		"rating" : "4.5",
		"location" : {
			"latitude" : 50.89738,
			"longtitude" : 1.396815
		}
	},
	{
		"name" : "Casa Brasil",
		"category" : "Barbecue,South American,Gluten Free Options",
		"rating" : "4",
		"location" : {
			"latitude" : 50.89788,
			"longtitude" : 1.398642
		}
	},
	{
		"name" : "Ennios",
		"category" : "Italian,Mediterranean,European,Gluten Free Options",
		"rating" : "4.5",
		"location" : {
			"latitude" : 50.89637,
			"longtitude" : 1.40454
		}
	},
	{
		"name" : "Sadler's Brewhouse & BBQ",
		"category" : "Barbecue,American,Pub,Gluten Free Options",
		"rating" : "4.5",
		"location" : {
			"latitude" : 50.912933,
			"longtitude" : 1.402711
		}
	},
	{
		"name" : "Coriander Lounge",
		"category" : "Indian,Asian,Halal",
		"rating" : "4.5",
		"location" : {
			"latitude" : 50.899677,
			"longtitude" : 1.403797
		}
	},
	{
		"name" : "Brewhouse & Kitchen \u2013 Southampton",
		"category" : "American,European,Pub,Gluten Free Options",
		"rating" : "4",
		"location" : {
			"latitude" : 50.931046,
			"longtitude" : 1.3996
		}
	},
	{
		"name" : "The Dancing Man Brewery",
		"category" : "British,Pub,Gluten Free Options",
		"rating" : "4",
		"location" : {
			"latitude" : 50.89736,
			"longtitude" : 1.406051
		}
	},
	{
		"name" : "The Railway Inn",
		"category" : "British,Pub,Gluten Free Options,Vegan Options",
		"rating" : "4.5",
		"location" : {
			"latitude" : 50.915794,
			"longtitude" : 1.258725
		}
	},
	{
		"name" : "The Olive Tree",
		"category" : "French,Mediterranean,European,British,Gluten Free Options",
		"rating" : "4.5",
		"location" : {
			"latitude" : 50.898136,
			"longtitude" : 1.397891
		}
	},
	{
		"name" : "Duke of Wellington",
		"category" : "British,Pub",
		"rating" : "4.5",
		"location" : {
			"latitude" : 50.898724,
			"longtitude" : 1.405915
		}
	},
	{
		"name" : "La Regata Restaurant",
		"category" : "Mediterranean,European,Spanish,Gluten Free Options",
		"rating" : "4.5",
		"location" : {
			"latitude" : 50.896667,
			"longtitude" : 1.404666
		}
	},
	{
		"name" : "Samuel's Rest Pub",
		"category" : "British,Pub,Gluten Free Options",
		"rating" : "4.5",
		"location" : {
			"latitude" : 50.916695,
			"longtitude" : 1.199064
		}
	},

	{
		"name" : "Turtle Bay",
		"category" : "Caribbean,Jamaican,Gluten Free Options",
		"rating" : "4",
		"location" : {
			"latitude" : 50.908,
			"longtitude" : 1.404972
		}
	},
	{
		"name" : "Tapas Barcelona",
		"category" : "Mediterranean,European,Spanish,Gluten Free Options",
		"rating" : "4",
		"location" : {
			"latitude" : 50.908207,
			"longtitude" : 1.404589
		}
	},
	{
		"name" : "Cove",
		"category" : "Seafood,European,British,French,Mediterranean,Eastern European",
		"rating" : "5",
		"location" : {
			"latitude" : 50.910065,
			"longtitude" : 1.380245
		}
	},
	{
		"name" : "7Bone Burger Co.",
		"category" : "American,Fast food",
		"rating" : "4",
		"location" : {
			"latitude" : 50.92345,
			"longtitude" : 1.394941
		}
	},
	{
		"name" : "Ovation, Mayflower Restaurant",
		"category" : "European,British,Soups,International,Fusion,Gluten Free Options",
		"rating" : "4.5",
		"location" : {
			"latitude" : 50.908806,
			"longtitude" : 1.410221
		}
	},
	{
		"name" : "Kuti's Royal Thai Pier",
		"category" : "Asian,Thai",
		"rating" : "4",
		"location" : {
			"latitude" : 50.896652,
			"longtitude" : 1.407149
		}
	},
	{
		"name" : "Mango Thai Tapas, Portswood",
		"category" : "Asian,Thai,Gluten Free Options",
		"rating" : "4.5",
		"location" : {
			"latitude" : 50.920666,
			"longtitude" : 1.3955
		}
	},
	{
		"name" : "dock o' the bay",
		"category" : "British,European",
		"rating" : "4.5",
		"location" : {
			"latitude" : 50.91892,
			"longtitude" : 1.404179
		}
	},
	{
		"name" : "Benzo Bar and Kitchen",
		"category" : "International,European,British,Pub",
		"rating" : "5",
		"location" : {
			"latitude" : 50.9128,
			"longtitude" : 1.40501
		}
	},
	{
		"name" : "Puccinis",
		"category" : "Italian,Pizza",
		"rating" : "4.5",
		"location" : {
			"latitude" : 50.917797,
			"longtitude" : 1.427372
		}
	},
	{
		"name" : "CXO Bar & Bistro",
		"category" : "Italian,Cafe,British,International,European",
		"rating" : "4.5",
		"location" : {
			"latitude" : 50.90848,
			"longtitude" : 1.413466
		}
	},
	{
		"name" : "Basmati Nepalese and Indian restaurant",
		"category" : "Indian,Asian,Vegetarian Friendly,Gluten Free Options",
		"rating" : "5",
		"location" : {
			"latitude" : 50.911446,
			"longtitude" : 1.405975
		}
	},
	{
		"name" : "The Ferry Restaurant",
		"category" : "British",
		"rating" : "4.5",
		"location" : {
			"latitude" : 50.88281,
			"longtitude" : 1.304594
		}
	},
	{
		"name" : "La Baronia",
		"category" : "Mexican,Gluten Free Options",
		"rating" : "4.5",
		"location" : {
			"latitude" : 50.920666,
			"longtitude" : 1.395333
		}
	},
	{
		"name" : "KALI MIRCHI",
		"category" : "Indian,Asian,Eastern European,Gluten Free Options",
		"rating" : "4.5",
		"location" : {
			"latitude" : 50.923,
			"longtitude" : 1.434647
		}
	},
	{
		"name" : "Jewels",
		"category" : "Indian,Asian,Eastern European",
		"rating" : "4.5",
		"location" : {
			"latitude" : 50.932987,
			"longtitude" : 1.352333
		}
	},
	{
		"name" : "Taj Mahal Restaurant Southampton",
		"category" : "Indian,Vegetarian Friendly,Halal,Gluten Free Options",
		"rating" : "4.5",
		"location" : {
			"latitude" : 50.908913,
			"longtitude" : 1.409584
		}
	},
	{
		"name" : "Steak of the Art",
		"category" : "Steakhouse,British",
		"rating" : "4",
		"location" : {
			"latitude" : 50.89644,
			"longtitude" : 1.392082
		}
	},
	{
		"name" : "La lupa",
		"category" : "Italian,Pizza,Gluten Free Options",
		"rating" : "4",
		"location" : {
			"latitude" : 50.89935,
			"longtitude" : 1.403675
		}
	},
	{
		"name" : "Milan Italian Restaurant",
		"category" : "Italian,Pizza",
		"rating" : "4.5",
		"location" : {
			"latitude" : 50.911785,
			"longtitude" : 1.404741
		}
	},
	{
		"name" : "Mike's Fish & Chips Restaurant",
		"category" : "Fast food,British,Seafood",
		"rating" : "5",
		"location" : {
			"latitude" : 50.900414,
			"longtitude" : 1.401161
		}
	},
	{
		"name" : "The Vestry Restaurant & Bar",
		"category" : "European,British,International,Gluten Free Options",
		"rating" : "4",
		"location" : {
			"latitude" : 50.908997,
			"longtitude" : 1.410925
		}
	},
	{
		"name" : "BAYLEAF kitchen",
		"category" : "Indian,Vegetarian Friendly",
		"rating" : "5",
		"location" : {
			"latitude" : 50.927444,
			"longtitude" : 1.335713
		}
	},
	{
		"name" : "Wagamama West Quay Centre",
		"category" : "Japanese",
		"rating" : "4",
		"location" : {
			"latitude" : 50.904408,
			"longtitude" : 1.405594
		}
	},
	{
		"name" : "Fusion Noodle Bar",
		"category" : "Chinese,Asian,Malaysian",
		"rating" : "4.5",
		"location" : {
			"latitude" : 50.90217,
			"longtitude" : 1.396667
		}
	},
	{
		"name" : "The Stable",
		"category" : "Italian,Pizza,British,Gluten Free Options",
		"rating" : "4",
		"location" : {
			"latitude" : 50.907547,
			"longtitude" : 1.404567
		}
	},
	{
		"name" : "Mango Thai Tapas Bar & Restaurant",
		"category" : "Asian,Thai,Gluten Free Options",
		"rating" : "4",
		"location" : {
			"latitude" : 50.908833,
			"longtitude" : 1.404667
		}
	},
	{
		"name" : "Kuti's Brasserie",
		"category" : "Indian",
		"rating" : "4",
		"location" : {
			"latitude" : 50.89796,
			"longtitude" : 1.397922
		}
	},
	{
		"name" : "The Art House",
		"category" : "Cafe,British,Vegetarian Friendly,Vegan Options,Gluten Free Options",
		"rating" : "4.5",
		"location" : {
			"latitude" : 50.90867,
			"longtitude" : 1.404503
		}
	},
	{
		"name" : "Black Dog",
		"category" : "British,Pub,International,Gluten Free Options",
		"rating" : "4",
		"location" : {
			"latitude" : 50.9166,
			"longtitude" : 1.20021
		}
	},

	{
		"name" : "Diego's",
		"category" : "Mediterranean,Portuguese",
		"rating" : "4.5",
		"location" : {
			"latitude" : 50.911636,
			"longtitude" : 1.4059
		}
	},
	{
		"name" : "The Art House",
		"category" : "Cafe,British,Vegetarian Friendly,Vegan Options,Gluten Free Options",
		"rating" : "4.5",
		"location" : {
			"latitude" : 50.90867,
			"longtitude" : 1.404503
		}
	},
	{
		"name" : "Chalk Valley Farm & Kitchen",
		"category" : "Steakhouse,Fast food,British,Vegetarian Friendly,Gluten Free Options",
		"rating" : "4.5",
		"location" : {
			"latitude" : 50.911655,
			"longtitude" : 1.404111
		}
	},
	{
		"name" : "Leelawadee Thai Restaurant & Tapas",
		"category" : "Asian,Thai",
		"rating" : "4.5",
		"location" : {
			"latitude" : 50.908913,
			"longtitude" : 1.409584
		}
	},
	{
		"name" : "Elias Restaurant",
		"category" : "Mediterranean,Greek",
		"rating" : "4.5",
		"location" : {
			"latitude" : 50.901436,
			"longtitude" : 1.401562
		}
	},
	{
		"name" : "The Lovely Little Cafe",
		"category" : "Cafe,British",
		"rating" : "4.5",
		"location" : {
			"latitude" : "null",
			"longtitude" : "null"
		}
	},
	{
		"name" : "Bella Italia Southampton Hanover",
		"category" : "Italian,Pizza,Mediterranean,Gluten Free Options",
		"rating" : "4",
		"location" : {
			"latitude" : 50.90284,
			"longtitude" : 1.402221
		}
	},
	{
		"name" : "Yuri Cottage",
		"category" : "Japanese,Sushi,Asian",
		"rating" : "5",
		"location" : {
			"latitude" : "null",
			"longtitude" : "null"
		}
	},
	{
		"name" : "George's Restaurant",
		"category" : "Mediterranean,Greek",
		"rating" : "4.5",
		"location" : {
			"latitude" : 50.89936,
			"longtitude" : 1.40573
		}
	},
	{
		"name" : "Banana Wharf",
		"category" : "Italian,Seafood,British,Gluten Free Options",
		"rating" : "4",
		"location" : {
			"latitude" : 50.896633,
			"longtitude" : 1.390872
		}
	},
	{
		"name" : "Platform Tavern",
		"category" : "British,Pub",
		"rating" : "4",
		"location" : {
			"latitude" : 50.89613,
			"longtitude" : 1.40254
		}
	},
	{
		"name" : "The Ship Inn",
		"category" : "British,Pub,Gluten Free Options",
		"rating" : "4",
		"location" : {
			"latitude" : 50.92111,
			"longtitude" : 1.472412
		}
	},
	{
		"name" : "Regginas Ristorante Italiano",
		"category" : "Italian,Pizza,Gluten Free Options",
		"rating" : "4",
		"location" : {
			"latitude" : 50.91437,
			"longtitude" : 1.270924
		}
	},
	{
		"name" : "The Empress of Blandings",
		"category" : "British,Pub,Gluten Free Options",
		"rating" : "4",
		"location" : {
			"latitude" : 50.930515,
			"longtitude" : 1.55932
		}
	},
	{
		"name" : "The Brushmakers Arms",
		"category" : "British,Pub,International",
		"rating" : "4.5",
		"location" : {
			"latitude" : "null",
			"longtitude" : "null"
		}
	},
	{
		"name" : "Kachina",
		"category" : "Chinese,Asian",
		"rating" : "4",
		"location" : {
			"latitude" : 50.919884,
			"longtitude" : 1.430693
		}
	},
	{
		"name" : "Bitterne Balti",
		"category" : "Indian,Asian,Halal",
		"rating" : "4.5",
		"location" : {
			"latitude" : 50.92445,
			"longtitude" : 1.375704
		}
	},
	{
		"name" : "The Elm Tree",
		"category" : "British,Pub",
		"rating" : "4",
		"location" : {
			"latitude" : 50.88313,
			"longtitude" : 1.27937
		}
	},
	{
		"name" : "Simons at Oxfords Bar & Restaurant",
		"category" : "European,British",
		"rating" : "4",
		"location" : {
			"latitude" : 50.898052,
			"longtitude" : 1.397355
		}
	},
	{
		"name" : "Nick's Restaurant",
		"category" : "European,British,Greek",
		"rating" : "4.5",
		"location" : {
			"latitude" : 50.901775,
			"longtitude" : 1.399568
		}
	},
	{
		"name" : "IKEA Restaurant - Southampton",
		"category" : "Fast food,European",
		"rating" : "4",
		"location" : {
			"latitude" : 50.90376,
			"longtitude" : 1.41271
		}
	},
	{
		"name" : "Bistro 8",
		"category" : "Pizza,European,British",
		"rating" : "4",
		"location" : {
			"latitude" : 50.874477,
			"longtitude" : 1.303616
		}
	},
	{
		"name" : "The Red Lion Pub",
		"category" : "British,Pub",
		"rating" : "4",
		"location" : {
			"latitude" : 50.89906,
			"longtitude" : 1.403474
		}
	},
	{
		"name" : "The Standing Order",
		"category" : "British,Pub",
		"rating" : "3.5",
		"location" : {
			"latitude" : 50.90049,
			"longtitude" : 1.403769
		}
	},
	{
		"name" : "Santo Lounge",
		"category" : "Cafe,Vegan Options,Gluten Free Options",
		"rating" : "4",
		"location" : {
			"latitude" : 50.92072,
			"longtitude" : 1.430845
		}
	},
	{
		"name" : "Tandoori",
		"category" : "Indian,Asian,Eastern European",
		"rating" : "4.5",
		"location" : {
			"latitude" : 50.897224,
			"longtitude" : 1.371803
		}
	},
	{
		"name" : "Gatehouse Grill at Kuti's Royal Pier",
		"category" : "Steakhouse",
		"rating" : "4",
		"location" : {
			"latitude" : 50.896572,
			"longtitude" : 1.407144
		}
	},
	{
		"name" : "Miss Ellie's Cafe",
		"category" : "British,Cafe",
		"rating" : "5",
		"location" : {
			"latitude" : 50.92507,
			"longtitude" : 1.375774
		}
	},
	{
		"name" : "Cafe Valentines",
		"category" : "Cafe,British",
		"rating" : "4.5",
		"location" : {
			"latitude" : 50.89799,
			"longtitude" : 1.397971
		}
	},
	{
		"name" : "Spice Cottage",
		"category" : "Indian,Asian,Vegetarian Friendly",
		"rating" : "5",
		"location" : {
			"latitude" : 50.89828,
			"longtitude" : 1.399122
		}
	},

	{
		"name" : "Aspire Restaurant",
		"category" : "British,European,Gluten Free Options",
		"rating" : "4.5",
		"location" : {
			"latitude" : 50.90323,
			"longtitude" : 1.394083
		}
	},
	{
		"name" : "Sakura",
		"category" : "Japanese,Sushi,Asian",
		"rating" : "5",
		"location" : {
			"latitude" : 50.91205,
			"longtitude" : 1.406032
		}
	},
	{
		"name" : "The Food Factory",
		"category" : "Chinese,Indian,Asian,International,Gluten Free Options",
		"rating" : "3.5",
		"location" : {
			"latitude" : 50.901436,
			"longtitude" : 1.403896
		}
	},
	{
		"name" : "Stakks Pancake House",
		"category" : "American,Vegetarian Friendly,Gluten Free Options",
		"rating" : "4.5",
		"location" : {
			"latitude" : 50.905697,
			"longtitude" : 1.405542
		}
	},
	{
		"name" : "The Pig in the Wall",
		"category" : "British,Delicatessen,Vegetarian Friendly,Gluten Free Options",
		"rating" : "4",
		"location" : {
			"latitude" : 50.899048,
			"longtitude" : 1.407252
		}
	},
	{
		"name" : "The Artisan",
		"category" : "Cafe,British,Soups,Vegetarian Friendly",
		"rating" : "4.5",
		"location" : {
			"latitude" : 50.90817,
			"longtitude" : 1.405098
		}
	},
	{
		"name" : "Miss Ellie's Cafe",
		"category" : "British,Cafe",
		"rating" : "5",
		"location" : {
			"latitude" : 50.92507,
			"longtitude" : 1.375774
		}
	},
	{
		"name" : "The Gordon Arms",
		"category" : "Indian,Pub",
		"rating" : "4.5",
		"location" : {
			"latitude" : 50.923405,
			"longtitude" : 1.395059
		}
	},
	{
		"name" : "The Farmers Home",
		"category" : "British,Pub,Gluten Free Options",
		"rating" : "4",
		"location" : {
			"latitude" : 50.941185,
			"longtitude" : 1.267317
		}
	},
	{
		"name" : "Shrimp and Burger",
		"category" : "American",
		"rating" : "4",
		"location" : {
			"latitude" : 50.912777,
			"longtitude" : 1.406122
		}
	},
	{
		"name" : "The Orange Rooms",
		"category" : "British,Street Food",
		"rating" : "4.5",
		"location" : {
			"latitude" : 50.91237,
			"longtitude" : 1.4049
		}
	},
	{
		"name" : "The Navigator",
		"category" : "British,Pub",
		"rating" : "4",
		"location" : {
			"latitude" : 50.883686,
			"longtitude" : 1.299422
		}
	},
	{
		"name" : "Beefy\u2019s Restaurant at Hilton Ageas Bowl",
		"category" : "British",
		"rating" : "4",
		"location" : {
			"latitude" : 50.97283,
			"longtitude" : 1.43133
		}
	},
	{
		"name" : "Sanjha Punjabi Restaurant & Caterings",
		"category" : "Indian,Asian",
		"rating" : "4",
		"location" : {
			"latitude" : 50.916866,
			"longtitude" : 1.426443
		}
	},
	{
		"name" : "The Dolphin Pub",
		"category" : "British,Pub",
		"rating" : "4.5",
		"location" : {
			"latitude" : 50.922363,
			"longtitude" : 1.388666
		}
	},
	{
		"name" : "Piggys Coffee Shop and Restaurant",
		"category" : "Cafe,British,Gluten Free Options",
		"rating" : "4.5",
		"location" : {
			"latitude" : 50.897247,
			"longtitude" : 1.379832
		}
	},
	{
		"name" : "Amber Deli & Bistro",
		"category" : "Italian,American,British,Healthy,European",
		"rating" : "4.5",
		"location" : {
			"latitude" : 50.911057,
			"longtitude" : 1.405677
		}
	},
	{
		"name" : "Roll Call",
		"category" : "Pub,Indian,Vegetarian Friendly",
		"rating" : "4.5",
		"location" : {
			"latitude" : 50.88134,
			"longtitude" : 1.339915
		}
	},
	{
		"name" : "Three Choirs Wickham",
		"category" : "British",
		"rating" : "4.5",
		"location" : {
			"latitude" : 50.924767,
			"longtitude" : 1.244694
		}
	},
	{
		"name" : "Lemoni Grill House Southampton",
		"category" : "Mediterranean,Greek,Healthy",
		"rating" : "4",
		"location" : {
			"latitude" : 50.901657,
			"longtitude" : 1.401078
		}
	},
	{
		"name" : "Purbani Netley",
		"category" : "Indian,Asian,Eastern European,Halal",
		"rating" : "4.5",
		"location" : {
			"latitude" : 50.875736,
			"longtitude" : 1.35569
		}
	},
	{
		"name" : "The Bold Forester",
		"category" : "British,Pub",
		"rating" : "3.5",
		"location" : {
			"latitude" : 50.875786,
			"longtitude" : 1.282559
		}
	},
	{
		"name" : "Samba Bar and Grill",
		"category" : "South American,Barbecue",
		"rating" : "4",
		"location" : {
			"latitude" : 50.90197,
			"longtitude" : 1.404011
		}
	},
	{
		"name" : "Momento",
		"category" : "Italian,Cafe,Gluten Free Options",
		"rating" : "4",
		"location" : {
			"latitude" : 50.907715,
			"longtitude" : 1.405214
		}
	},
	{
		"name" : "Baan Mai Thai Restaurant",
		"category" : "Asian,Thai",
		"rating" : "4.5",
		"location" : {
			"latitude" : 50.927128,
			"longtitude" : 1.390578
		}
	},
	{
		"name" : "Mettricks Guildhall Place",
		"category" : "Cafe,British,Healthy,Vegetarian Friendly",
		"rating" : "4.5",
		"location" : {
			"latitude" : 50.90805,
			"longtitude" : 1.403952
		}
	},
	{
		"name" : "Jehangir",
		"category" : "Indian,Asian,Eastern European",
		"rating" : "4",
		"location" : {
			"latitude" : 50.93438,
			"longtitude" : 1.418679
		}
	},
	{
		"name" : "Jolly Sailor",
		"category" : "British,Pub",
		"rating" : "4.5",
		"location" : {
			"latitude" : 50.82699,
			"longtitude" : 1.34752
		}
	},
	{
		"name" : "Nara Japanese Restaurant",
		"category" : "Japanese,Sushi,Asian",
		"rating" : "4.5",
		"location" : {
			"latitude" : 50.911926,
			"longtitude" : 1.406207
		}
	},
	{
		"name" : "Banks Bar Bistro",
		"category" : "British",
		"rating" : "4",
		"location" : {
			"latitude" : 50.95456,
			"longtitude" : 1.21063
		}
	},

	{
		"name" : "Indian Melody",
		"category" : "Indian,Asian,Vegetarian Friendly,Vegan Options,Gluten Free Options",
		"rating" : "4.5",
		"location" : {
			"latitude" : 50.900883,
			"longtitude" : 1.403727
		}
	},
	{
		"name" : "The Horse & Jockey",
		"category" : "British,Pub,Gluten Free Options",
		"rating" : "4",
		"location" : {
			"latitude" : 50.937073,
			"longtitude" : 1.337599
		}
	},
	{
		"name" : "The Stage Door Southampton",
		"category" : "British,Gluten Free Options",
		"rating" : "4.5",
		"location" : {
			"latitude" : 50.90718,
			"longtitude" : 1.405499
		}
	},
	{
		"name" : "The Jolly Sailor",
		"category" : "British,Pub,Gluten Free Options",
		"rating" : "3.5",
		"location" : {
			"latitude" : 50.881298,
			"longtitude" : 1.303959
		}
	},
	{
		"name" : "Namaste Indus",
		"category" : "Indian,Asian,Vegetarian Friendly,Vegan Options",
		"rating" : "4.5",
		"location" : {
			"latitude" : 50.906857,
			"longtitude" : 1.405293
		}
	},
	{
		"name" : "Casanova",
		"category" : "Italian,Pizza,Mediterranean",
		"rating" : "4.5",
		"location" : {
			"latitude" : 50.9025,
			"longtitude" : 1.40097
		}
	},
	{
		"name" : "Woodlands Lodge Hotel",
		"category" : "British,Gluten Free Options",
		"rating" : "4.5",
		"location" : {
			"latitude" : 50.901745,
			"longtitude" : 1.554208
		}
	},
	{
		"name" : "Gusto Lounge",
		"category" : "Mediterranean,Italian,European,Pizza",
		"rating" : "4",
		"location" : {
			"latitude" : 50.909023,
			"longtitude" : 1.408917
		}
	},
	{
		"name" : "Mango Thai Tapas, Ocean Village",
		"category" : "Asian,Thai",
		"rating" : "4.5",
		"location" : {
			"latitude" : 50.896996,
			"longtitude" : 1.394394
		}
	},
	{
		"name" : "Revolution Bar",
		"category" : "American,British",
		"rating" : "4",
		"location" : {
			"latitude" : 50.91258,
			"longtitude" : 1.406177
		}
	},
	{
		"name" : "The Bugle Inn",
		"category" : "British",
		"rating" : "4",
		"location" : {
			"latitude" : 50.914425,
			"longtitude" : 1.270252
		}
	},
	{
		"name" : "Benny's BurgerTown",
		"category" : "American,Fast food,British",
		"rating" : "4.5",
		"location" : {
			"latitude" : 50.907288,
			"longtitude" : 1.396872
		}
	},
	{
		"name" : "Basmati Indian Restaurant Southampton",
		"category" : "Indian,Eastern European,Asian",
		"rating" : "4.5",
		"location" : {
			"latitude" : 50.86332,
			"longtitude" : 1.275707
		}
	},
	{
		"name" : "Pret A Manger",
		"category" : "Cafe,British,Fast food,Vegetarian Friendly,Gluten Free Options",
		"rating" : "4.5",
		"location" : {
			"latitude" : 50.90435,
			"longtitude" : 1.411376
		}
	},
	{
		"name" : "Melo Restaurant",
		"category" : "Middle Eastern,Persian,Halal",
		"rating" : "4.5",
		"location" : {
			"latitude" : 50.938515,
			"longtitude" : 1.380177
		}
	},
	{
		"name" : "Lins Chip Shop",
		"category" : "Fast food",
		"rating" : "5",
		"location" : {
			"latitude" : 50.91661,
			"longtitude" : 1.4258
		}
	},
	{
		"name" : "Yummy Thai Noodle Bar",
		"category" : "Asian,Thai",
		"rating" : "4.5",
		"location" : {
			"latitude" : 50.90506,
			"longtitude" : 1.403645
		}
	},
	{
		"name" : "Fortune Chinese Restaurant",
		"category" : "Chinese,Asian,Vegetarian Friendly",
		"rating" : "4",
		"location" : {
			"latitude" : 50.899258,
			"longtitude" : 1.399873
		}
	},
	{
		"name" : "Buffalo Bills",
		"category" : "American",
		"rating" : "4",
		"location" : {
			"latitude" : 50.908985,
			"longtitude" : 1.409148
		}
	},
	{
		"name" : "Rancho",
		"category" : "Steakhouse,British,Argentinian,South American",
		"rating" : "3.5",
		"location" : {
			"latitude" : 50.899334,
			"longtitude" : 1.403667
		}
	},
	{
		"name" : "King's Country Bar & Restaurant",
		"category" : "British,Gluten Free Options",
		"rating" : "4",
		"location" : {
			"latitude" : 50.91348,
			"longtitude" : 1.26118
		}
	},
	{
		"name" : "The Lime Bar",
		"category" : "Chinese",
		"rating" : "4.5",
		"location" : {
			"latitude" : 50.86498,
			"longtitude" : 1.261477
		}
	},
	{
		"name" : "The White Star Tavern",
		"category" : "British,Pub,Gluten Free Options",
		"rating" : "3.5",
		"location" : {
			"latitude" : 50.898323,
			"longtitude" : 1.398126
		}
	},
	{
		"name" : "Stein Garten",
		"category" : "German,European,Pub",
		"rating" : "4",
		"location" : {
			"latitude" : 50.89914,
			"longtitude" : 1.403794
		}
	},
	{
		"name" : "The King & Queen Pub",
		"category" : "British,Pub",
		"rating" : "4",
		"location" : {
			"latitude" : 50.85859,
			"longtitude" : 1.313631
		}
	},
	{
		"name" : "Tang's Chinese Restaurant",
		"category" : "Chinese,Asian",
		"rating" : "4",
		"location" : {
			"latitude" : 50.907143,
			"longtitude" : 1.404689
		}
	},
	{
		"name" : "Royal Bengal Restaurant",
		"category" : "Indian,Asian,Eastern European",
		"rating" : "4.5",
		"location" : {
			"latitude" : 50.862167,
			"longtitude" : 1.329153
		}
	},
	{
		"name" : "Pitcher & Piano - Southampton",
		"category" : "British,Gluten Free Options",
		"rating" : "3.5",
		"location" : {
			"latitude" : 50.89747,
			"longtitude" : 1.390052
		}
	},
	{
		"name" : "The Talisman pub restaurant",
		"category" : "British,Pub,Gluten Free Options",
		"rating" : "3.5",
		"location" : {
			"latitude" : 50.870804,
			"longtitude" : 1.26543
		}
	},
	{
		"name" : "Crown Inn Pub",
		"category" : "British,Pub,Vegetarian Friendly",
		"rating" : "4",
		"location" : {
			"latitude" : 50.932182,
			"longtitude" : 1.400314
		}
	},

	{
		"name" : "Royal Bengal Restaurant",
		"category" : "Indian,Asian,Eastern European",
		"rating" : "4.5",
		"location" : {
			"latitude" : 50.862167,
			"longtitude" : 1.329153
		}
	},
	{
		"name" : "Fuchi",
		"category" : "Chinese,Asian,Gluten Free Options",
		"rating" : "4",
		"location" : {
			"latitude" : 50.91531,
			"longtitude" : 1.48661
		}
	},
	{
		"name" : "Kohinoor",
		"category" : "Indian,Asian",
		"rating" : "4.5",
		"location" : {
			"latitude" : 50.92761,
			"longtitude" : 1.388234
		}
	},
	{
		"name" : "La Vita Cafe",
		"category" : "Italian,Cafe",
		"rating" : "4",
		"location" : {
			"latitude" : 50.900997,
			"longtitude" : 1.404274
		}
	},
	{
		"name" : "Big Blue Cafe",
		"category" : "Cafe,British",
		"rating" : "5",
		"location" : {
			"latitude" : "null",
			"longtitude" : "null"
		}
	},
	{
		"name" : "Handmade Burger Company",
		"category" : "American,British,Gluten Free Options",
		"rating" : "3.5",
		"location" : {
			"latitude" : 50.9034,
			"longtitude" : 1.407505
		}
	},
	{
		"name" : "Good Pho You",
		"category" : "Asian,Vietnamese,Vegetarian Friendly",
		"rating" : "5",
		"location" : {
			"latitude" : 50.917297,
			"longtitude" : 1.427176
		}
	},
	{
		"name" : "Bella Italia Southampton Above Bar",
		"category" : "Italian,Pizza,Gluten Free Options",
		"rating" : "4",
		"location" : {
			"latitude" : 50.906254,
			"longtitude" : 1.404706
		}
	},
	{
		"name" : "The Forest Home",
		"category" : "British,Pub",
		"rating" : "4",
		"location" : {
			"latitude" : 50.841434,
			"longtitude" : 1.391916
		}
	},
	{
		"name" : "Mexigo",
		"category" : "Mexican,Fast food",
		"rating" : "4",
		"location" : {
			"latitude" : 50.91156,
			"longtitude" : 1.404044
		}
	},
	{
		"name" : "Zen Japanese & Oriental Restaurant",
		"category" : "Japanese,Sushi,Asian,Gluten Free Options",
		"rating" : "3.5",
		"location" : {
			"latitude" : 50.899506,
			"longtitude" : 1.403617
		}
	},
	{
		"name" : "Holbury Fish Bar",
		"category" : "Fast food,British,Seafood",
		"rating" : "4.5",
		"location" : {
			"latitude" : 50.832718,
			"longtitude" : 1.381944
		}
	},
	{
		"name" : "The Giddy Bridge",
		"category" : "British,Pub",
		"rating" : "3.5",
		"location" : {
			"latitude" : 50.91079,
			"longtitude" : 1.404612
		}
	},
	{
		"name" : "Supreme Asia Cuisine",
		"category" : "Chinese,Asian",
		"rating" : "4",
		"location" : {
			"latitude" : 50.89994,
			"longtitude" : 1.40386
		}
	},
	{
		"name" : "Sidewalk South",
		"category" : "Cafe,British",
		"rating" : "4.5",
		"location" : {
			"latitude" : "null",
			"longtitude" : "null"
		}
	},
	{
		"name" : "Poppins portswood",
		"category" : "Cafe,British",
		"rating" : "4.5",
		"location" : {
			"latitude" : 50.926243,
			"longtitude" : 1.392377
		}
	},
	{
		"name" : "Annies",
		"category" : "British,Cafe",
		"rating" : "4",
		"location" : {
			"latitude" : 50.89795,
			"longtitude" : 1.379743
		}
	},
	{
		"name" : "Chimichanga",
		"category" : "Mexican,Gluten Free Options",
		"rating" : "3.5",
		"location" : {
			"latitude" : 50.89789,
			"longtitude" : 1.39796
		}
	},
	{
		"name" : "Best Fry Fish and Chips",
		"category" : "Fast food,British,Seafood",
		"rating" : "4.5",
		"location" : {
			"latitude" : 50.927593,
			"longtitude" : 1.334033
		}
	},
	{
		"name" : "88 Chinese Restaurant",
		"category" : "Chinese,Asian",
		"rating" : "4",
		"location" : {
			"latitude" : 50.91192,
			"longtitude" : 1.403866
		}
	},
	{
		"name" : "Balmoral Beefeater",
		"category" : "Steakhouse,British,Pub,Gluten Free Options,Vegetarian Friendly",
		"rating" : "3.5",
		"location" : {
			"latitude" : 50.945007,
			"longtitude" : 1.461829
		}
	},
	{
		"name" : "The View Bar And Bistro",
		"category" : "British,Pub",
		"rating" : "4.5",
		"location" : {
			"latitude" : 50.93697,
			"longtitude" : 1.41733
		}
	},
	{
		"name" : "Courtyard",
		"category" : "British",
		"rating" : "4",
		"location" : {
			"latitude" : 50.91443,
			"longtitude" : 1.268567
		}
	},
	{
		"name" : "The Old Forge Inn",
		"category" : "British",
		"rating" : "4",
		"location" : {
			"latitude" : 50.923923,
			"longtitude" : 1.199372
		}
	},
	{
		"name" : "The Horns Inn",
		"category" : "British,Pub,Gluten Free Options",
		"rating" : "3.5",
		"location" : {
			"latitude" : 50.94781,
			"longtitude" : 1.463717
		}
	},
	{
		"name" : "Casa Italia",
		"category" : "Italian,European,Pizza",
		"rating" : "3.5",
		"location" : {
			"latitude" : 50.908607,
			"longtitude" : 1.411685
		}
	},
	{
		"name" : "Harry Ramsden's",
		"category" : "Seafood,Fast food,British",
		"rating" : "3.5",
		"location" : {
			"latitude" : 50.90376,
			"longtitude" : 1.41271
		}
	},
	{
		"name" : "Shanghai Bay",
		"category" : "Chinese,Asian",
		"rating" : "4.5",
		"location" : {
			"latitude" : 50.903233,
			"longtitude" : 1.404475
		}
	},
	{
		"name" : "Tiger Lilly",
		"category" : "Indian,Chinese,Eastern European",
		"rating" : "4",
		"location" : {
			"latitude" : 50.912422,
			"longtitude" : 1.404365
		}
	},
	{
		"name" : "Four Horseshoes",
		"category" : "British,Pub",
		"rating" : "4",
		"location" : {
			"latitude" : 50.944965,
			"longtitude" : 1.47464
		}
	},

	{
		"name" : "Four Horseshoes",
		"category" : "British,Pub",
		"rating" : "4",
		"location" : {
			"latitude" : 50.944965,
			"longtitude" : 1.47464
		}
	},
	{
		"name" : "The London Hotel",
		"category" : "British,Pub",
		"rating" : "4",
		"location" : {
			"latitude" : 50.89819,
			"longtitude" : 1.3987
		}
	},
	{
		"name" : "Pizza Express",
		"category" : "Italian,Pizza,Gluten Free Options",
		"rating" : "4",
		"location" : {
			"latitude" : 50.90362,
			"longtitude" : 1.406868
		}
	},
	{
		"name" : "Greekville",
		"category" : "Mediterranean,Greek",
		"rating" : "4",
		"location" : {
			"latitude" : 50.900536,
			"longtitude" : 1.401216
		}
	},
	{
		"name" : "The Blue Keys Bar & Restaurant",
		"category" : "European",
		"rating" : "4.5",
		"location" : {
			"latitude" : 50.916683,
			"longtitude" : 1.413062
		}
	},
	{
		"name" : "Southampton Arms",
		"category" : "British,Pub",
		"rating" : "4",
		"location" : {
			"latitude" : 50.93215,
			"longtitude" : 1.321679
		}
	},
	{
		"name" : "The Cowherds",
		"category" : "British,Pub,Gluten Free Options",
		"rating" : "3.5",
		"location" : {
			"latitude" : 50.92405,
			"longtitude" : 1.405969
		}
	},
	{
		"name" : "Retro Cafe",
		"category" : "Cafe,European",
		"rating" : "4.5",
		"location" : {
			"latitude" : 50.913,
			"longtitude" : 1.406243
		}
	},
	{
		"name" : "Fox & Hounds",
		"category" : "British,Pub,Gluten Free Options",
		"rating" : "3.5",
		"location" : {
			"latitude" : 50.88206,
			"longtitude" : 1.31852
		}
	},
	{
		"name" : "Carluccio's",
		"category" : "Italian,European",
		"rating" : "4",
		"location" : {
			"latitude" : 50.90366,
			"longtitude" : 1.407219
		}
	},
	{
		"name" : "Emons",
		"category" : "Asian,Indian,Fast food,Halal",
		"rating" : "4.5",
		"location" : {
			"latitude" : 50.90886,
			"longtitude" : 1.416737
		}
	},
	{
		"name" : "The Cricketers",
		"category" : "British,Pub",
		"rating" : "4",
		"location" : {
			"latitude" : 50.912914,
			"longtitude" : 1.404984
		}
	},
	{
		"name" : "Yo! Sushi",
		"category" : "Japanese,Sushi,Asian,Fast food",
		"rating" : "3.5",
		"location" : {
			"latitude" : 50.85829,
			"longtitude" : 1.31357
		}
	},
	{
		"name" : "Small Fry Fish & Chip Shop Ltd",
		"category" : "Fast food,British,Seafood",
		"rating" : "4.5",
		"location" : {
			"latitude" : 50.91925,
			"longtitude" : 1.39932
		}
	},
	{
		"name" : "Master Builder",
		"category" : "British,Pub",
		"rating" : "4",
		"location" : {
			"latitude" : 50.931667,
			"longtitude" : 1.346428
		}
	},
	{
		"name" : "Trago Lounge",
		"category" : "Cafe,Vegan Options,Gluten Free Options",
		"rating" : "3.5",
		"location" : {
			"latitude" : 50.9266,
			"longtitude" : 1.391242
		}
	},
	{
		"name" : "Hythe Kebab Centre",
		"category" : "Fast food,Turkish,Middle Eastern,Halal",
		"rating" : "5",
		"location" : {
			"latitude" : 50.870193,
			"longtitude" : 1.398061
		}
	},
	{
		"name" : "Nicole's Take-A-Way",
		"category" : "Indian,Fast food,Asian",
		"rating" : "4.5",
		"location" : {
			"latitude" : 50.927464,
			"longtitude" : 1.500352
		}
	},
	{
		"name" : "The Testwood",
		"category" : "British,Pub",
		"rating" : "3.5",
		"location" : {
			"latitude" : 50.93028,
			"longtitude" : 1.50356
		}
	},
	{
		"name" : "Kam's Palace",
		"category" : "Chinese,Asian",
		"rating" : "3.5",
		"location" : {
			"latitude" : 50.870544,
			"longtitude" : 1.265317
		}
	},
	{
		"name" : "Little Buddha",
		"category" : "Chinese,Asian",
		"rating" : "3.5",
		"location" : {
			"latitude" : 50.920982,
			"longtitude" : 1.431937
		}
	},
	{
		"name" : "Pizza Express",
		"category" : "Italian,Pizza",
		"rating" : "3.5",
		"location" : {
			"latitude" : 50.898052,
			"longtitude" : 1.397843
		}
	},
	{
		"name" : "Cafe Valletta",
		"category" : "Mediterranean",
		"rating" : "5",
		"location" : {
			"latitude" : 50.91387,
			"longtitude" : 1.446353
		}
	},
	{
		"name" : "Maritimo Lounge",
		"category" : "Vegan Options,Gluten Free Options",
		"rating" : "3.5",
		"location" : {
			"latitude" : "null",
			"longtitude" : "null"
		}
	},
	{
		"name" : "Ketch Rigger",
		"category" : "British",
		"rating" : "4",
		"location" : {
			"latitude" : 50.85176,
			"longtitude" : 1.311758
		}
	},
	{
		"name" : "The Village Inn",
		"category" : "British,Pub",
		"rating" : "3.5",
		"location" : {
			"latitude" : 50.87587,
			"longtitude" : 1.26824
		}
	},
	{
		"name" : "Bengal Brasserie",
		"category" : "Indian,Asian,Eastern European",
		"rating" : "4",
		"location" : {
			"latitude" : 50.911858,
			"longtitude" : 1.40586
		}
	},
	{
		"name" : "Jurys Inn Southampton",
		"category" : "British",
		"rating" : "3.5",
		"location" : {
			"latitude" : 50.91094,
			"longtitude" : 1.40147
		}
	},
	{
		"name" : "West End Brewery",
		"category" : "British,Pub",
		"rating" : "4",
		"location" : {
			"latitude" : 50.927902,
			"longtitude" : 1.335564
		}
	},
	{
		"name" : "Nando's",
		"category" : "Portuguese,European",
		"rating" : "3.5",
		"location" : {
			"latitude" : 50.903862,
			"longtitude" : 1.407474
		}
	},
	{
		"name" : "Neighbourhood, Southampton",
		"category" : "American,Pub",
		"rating" : "3.5",
		"location" : {
			"latitude" : 50.907703,
			"longtitude" : 1.404428
		}
	},
	{
		"name" : "The Admiral Sir Lucius Curtis",
		"category" : "American,British,Pub",
		"rating" : "3.5",
		"location" : {
			"latitude" : 50.896767,
			"longtitude" : 1.393771
		}
	},
	{
		"name" : "JRC Global Buffet",
		"category" : "Italian,Chinese,Japanese,American,Indian,Sushi,European,Spanish,Asian,British,Vegetarian Friendly",
		"rating" : "3",
		"location" : {
			"latitude" : 50.906948,
			"longtitude" : 1.405772
		}
	},
	{
		"name" : "Anchor Inn",
		"category" : "British,Pub",
		"rating" : "4",
		"location" : {
			"latitude" : 50.9124,
			"longtitude" : 1.48174
		}
	},
	{
		"name" : "Yellow Welly Cafe",
		"category" : "Cafe,British",
		"rating" : "4",
		"location" : {
			"latitude" : 50.910107,
			"longtitude" : 1.379619
		}
	},
	{
		"name" : "Belgium & Blues",
		"category" : "null",
		"rating" : "4.5",
		"location" : {
			"latitude" : 50.909046,
			"longtitude" : 1.404459
		}
	},
	{
		"name" : "Stacja PL Restaurant",
		"category" : "Polish,European,Eastern European",
		"rating" : "4.5",
		"location" : {
			"latitude" : 50.913193,
			"longtitude" : 1.399412
		}
	},
	{
		"name" : "Harvester - The Windhover Manor",
		"category" : "British,Pub,Gluten Free Options",
		"rating" : "3",
		"location" : {
			"latitude" : 50.89483,
			"longtitude" : 1.317754
		}
	},
	{
		"name" : "the White Swan",
		"category" : "British,Pub,Vegetarian Friendly,Gluten Free Options",
		"rating" : "3.5",
		"location" : {
			"latitude" : 50.93798,
			"longtitude" : 1.361405
		}
	},
	{
		"name" : "Pizza Hut",
		"category" : "Italian,Pizza",
		"rating" : "4",
		"location" : {
			"latitude" : 50.917416,
			"longtitude" : 1.312364
		}
	},
	{
		"name" : "New Forest Bistro",
		"category" : "Fast food",
		"rating" : "4.5",
		"location" : {
			"latitude" : 50.817757,
			"longtitude" : 1.372395
		}
	},
	{
		"name" : "Thai Cafe",
		"category" : "Asian,Thai",
		"rating" : "4",
		"location" : {
			"latitude" : 50.91649,
			"longtitude" : 1.426146
		}
	},
	{
		"name" : "Bengal Paradise",
		"category" : "Indian,Asian,Fast food",
		"rating" : "4",
		"location" : {
			"latitude" : 50.924217,
			"longtitude" : 1.375731
		}
	},
	{
		"name" : "The Wheatsheaf",
		"category" : "Pub",
		"rating" : "4.5",
		"location" : {
			"latitude" : "null",
			"longtitude" : "null"
		}
	},
	{
		"name" : "Holiday Inn Express South Hampton West Restaurant",
		"category" : "British",
		"rating" : "3.5",
		"location" : {
			"latitude" : 50.936863,
			"longtitude" : 1.466995
		}
	},
	{
		"name" : "Cafe Portobello",
		"category" : "null",
		"rating" : "4.5",
		"location" : {
			"latitude" : 50.911682,
			"longtitude" : 1.404468
		}
	},
	{
		"name" : "Cafe W of Waterstones",
		"category" : "Cafe,Vegetarian Friendly",
		"rating" : "4",
		"location" : {
			"latitude" : 50.905025,
			"longtitude" : 1.407571
		}
	},
	{
		"name" : "Thai 2 GO",
		"category" : "Asian,Thai",
		"rating" : "4.5",
		"location" : {
			"latitude" : 50.914494,
			"longtitude" : 1.423382
		}
	},
	{
		"name" : "The Orangery",
		"category" : "null",
		"rating" : "4.5",
		"location" : {
			"latitude" : 50.93948,
			"longtitude" : 1.334915
		}
	},
	{
		"name" : "The ParkLife Cafe",
		"category" : "Cafe",
		"rating" : "4",
		"location" : {
			"latitude" : 50.92463,
			"longtitude" : 1.43076
		}
	},
	{
		"name" : "Chai Ice & Coffee Thai Restaurant",
		"category" : "null",
		"rating" : "4.5",
		"location" : {
			"latitude" : 50.93811,
			"longtitude" : 1.379967
		}
	},
	{
		"name" : "Viney's",
		"category" : "British,Vegetarian Friendly",
		"rating" : "4.5",
		"location" : {
			"latitude" : 50.9145,
			"longtitude" : 1.270171
		}
	},
	{
		"name" : "The Titanic Public House",
		"category" : "British,Pub",
		"rating" : "4",
		"location" : {
			"latitude" : 50.899982,
			"longtitude" : 1.405875
		}
	},
	{
		"name" : "Lilies Asian Tandoori",
		"category" : "Indian,Vegetarian Friendly",
		"rating" : "4.5",
		"location" : {
			"latitude" : 50.9132,
			"longtitude" : 1.435401
		}
	},
	{
		"name" : "The Old Ship",
		"category" : "British,Pub",
		"rating" : "3.5",
		"location" : {
			"latitude" : 50.881294,
			"longtitude" : 1.296235
		}
	},
	{
		"name" : "Alexanda's Restaurant & Bespoke Deli",
		"category" : "null",
		"rating" : "4.5",
		"location" : {
			"latitude" : 50.884953,
			"longtitude" : 1.302309
		}
	},
	{
		"name" : "Purbani",
		"category" : "Indian,Asian,Eastern European",
		"rating" : "3.5",
		"location" : {
			"latitude" : 50.914494,
			"longtitude" : 1.270071
		}
	},
	{
		"name" : "Hong Kong Garden",
		"category" : "Chinese,Asian,Fast food",
		"rating" : "4.5",
		"location" : {
			"latitude" : 50.914238,
			"longtitude" : 1.299812
		}
	},
	{
		"name" : "Nicole's Restaurant",
		"category" : "Indian",
		"rating" : "5",
		"location" : {
			"latitude" : 50.91725,
			"longtitude" : 1.426607
		}
	},
	{
		"name" : "The Prince Consort",
		"category" : "British,Pub,International",
		"rating" : "3.5",
		"location" : {
			"latitude" : 50.874687,
			"longtitude" : 1.3548
		}
	},

	{
		"name" : "Malvern Tavern",
		"category" : "British,Pub",
		"rating" : "3.5",
		"location" : {
			"latitude" : 50.932,
			"longtitude" : 1.423874
		}
	},
	{
		"name" : "The Fish Station",
		"category" : "Seafood,Fast food,European,Turkish",
		"rating" : "4.5",
		"location" : {
			"latitude" : 50.90167,
			"longtitude" : 1.402419
		}
	},
	{
		"name" : "Make & Brew",
		"category" : "null",
		"rating" : "5",
		"location" : {
			"latitude" : 50.920723,
			"longtitude" : 1.421323
		}
	},
	{
		"name" : "Aroma Indian Cuisine",
		"category" : "Indian,Asian,Eastern European",
		"rating" : "3.5",
		"location" : {
			"latitude" : 50.8313,
			"longtitude" : 1.379564
		}
	},
	{
		"name" : "Chip N Tails",
		"category" : "Fast food",
		"rating" : "4.5",
		"location" : {
			"latitude" : 50.8653,
			"longtitude" : 1.40427
		}
	},
	{
		"name" : "Indian Summer Indian Takeway",
		"category" : "Indian,Asian,Eastern European",
		"rating" : "4",
		"location" : {
			"latitude" : 50.87209,
			"longtitude" : 1.26798
		}
	},
	{
		"name" : "Indulgence Bargate Southampton",
		"category" : "Cafe,French,British",
		"rating" : "4.5",
		"location" : {
			"latitude" : 50.902866,
			"longtitude" : 1.403948
		}
	},
	{
		"name" : "St James Chippy",
		"category" : "Seafood",
		"rating" : "5",
		"location" : {
			"latitude" : 50.920986,
			"longtitude" : 1.421838
		}
	},
	{
		"name" : "Wham Bam Tikka",
		"category" : "Indian,Fast food,Vegetarian Friendly,Vegan Options",
		"rating" : "4.5",
		"location" : {
			"latitude" : 50.903862,
			"longtitude" : 1.407474
		}
	},
	{
		"name" : "Olive Garden",
		"category" : "Mediterranean,Turkish,Middle Eastern,Italian,Greek,Persian",
		"rating" : "4",
		"location" : {
			"latitude" : 50.89972,
			"longtitude" : 1.403993
		}
	},
	{
		"name" : "Ed's Easy Diner",
		"category" : "American,Fast food",
		"rating" : "3",
		"location" : {
			"latitude" : 50.90339,
			"longtitude" : 1.407505
		}
	},
	{
		"name" : "Cargo",
		"category" : "British",
		"rating" : "3.5",
		"location" : {
			"latitude" : 50.89832,
			"longtitude" : 1.398735
		}
	},
	{
		"name" : "Spitfire",
		"category" : "British,Pub",
		"rating" : "3.5",
		"location" : {
			"latitude" : 50.90757,
			"longtitude" : 1.404236
		}
	},
	{
		"name" : "G J's Plaice",
		"category" : "null",
		"rating" : "4.5",
		"location" : {
			"latitude" : 50.817875,
			"longtitude" : 1.372064
		}
	},
	{
		"name" : "The Waterloo Arms",
		"category" : "Pub",
		"rating" : "4.5",
		"location" : {
			"latitude" : 50.91131,
			"longtitude" : 1.426773
		}
	},
	{
		"name" : "Oasis Bar",
		"category" : "null",
		"rating" : "4.5",
		"location" : {
			"latitude" : 50.900146,
			"longtitude" : 1.404109
		}
	},
	{
		"name" : "Smoky Pizza",
		"category" : "Italian,Pizza,Fast food",
		"rating" : "4",
		"location" : {
			"latitude" : 50.920322,
			"longtitude" : 1.395637
		}
	},
	{
		"name" : "The Barleycorn",
		"category" : "British,Pub",
		"rating" : "4",
		"location" : {
			"latitude" : 50.913734,
			"longtitude" : 1.302272
		}
	},
	{
		"name" : "Sholing Grill",
		"category" : "null",
		"rating" : "5",
		"location" : {
			"latitude" : 50.903423,
			"longtitude" : 1.346862
		}
	},
	{
		"name" : "Bulthi Hut",
		"category" : "null",
		"rating" : "5",
		"location" : {
			"latitude" : 50.890812,
			"longtitude" : 1.450955
		}
	},
	{
		"name" : "The Pavilion Bar at Hilton Hotel",
		"category" : "British",
		"rating" : "3.5",
		"location" : {
			"latitude" : 50.95648,
			"longtitude" : 1.3999
		}
	},
	{
		"name" : "Pizzaroma",
		"category" : "Italian",
		"rating" : "5",
		"location" : {
			"latitude" : 50.917595,
			"longtitude" : 1.376132
		}
	},
	{
		"name" : "Chiquito - Southampton",
		"category" : "Mexican,Vegetarian Friendly",
		"rating" : "3.5",
		"location" : {
			"latitude" : 50.896973,
			"longtitude" : 1.39369
		}
	},
	{
		"name" : "Red Rover",
		"category" : "British,Pub",
		"rating" : "3.5",
		"location" : {
			"latitude" : 50.93371,
			"longtitude" : 1.51054
		}
	},
	{
		"name" : "Thyme Premier Inn",
		"category" : "British,Gluten Free Options",
		"rating" : "3.5",
		"location" : {
			"latitude" : 50.90119,
			"longtitude" : 1.409138
		}
	},
	{
		"name" : "Gandhi",
		"category" : "Indian,Asian",
		"rating" : "3.5",
		"location" : {
			"latitude" : 50.925846,
			"longtitude" : 1.393021
		}
	},
	{
		"name" : "Genting Club",
		"category" : "British",
		"rating" : "3.5",
		"location" : {
			"latitude" : 50.89849,
			"longtitude" : 1.396571
		}
	},
	{
		"name" : "Tariq Manzils",
		"category" : "Indian,Asian,Eastern European,Halal",
		"rating" : "4",
		"location" : {
			"latitude" : 50.915695,
			"longtitude" : 1.396522
		}
	},
	{
		"name" : "King Rufus Public House",
		"category" : "Pizza,British",
		"rating" : "5",
		"location" : {
			"latitude" : 50.909332,
			"longtitude" : 1.479174
		}
	},
	{
		"name" : "The Plough Inn",
		"category" : "British,Pub,Gluten Free Options",
		"rating" : "3",
		"location" : {
			"latitude" : 50.889374,
			"longtitude" : 1.330262
		}
	},

	{
		"name" : "Aroma Lounge",
		"category" : "Indian,Halal",
		"rating" : "4",
		"location" : {
			"latitude" : 50.923607,
			"longtitude" : 1.394521
		}
	},
	{
		"name" : "Thyme",
		"category" : "British,International",
		"rating" : "4",
		"location" : {
			"latitude" : 50.953476,
			"longtitude" : 1.359801
		}
	},
	{
		"name" : "Ask Italian",
		"category" : "Italian,Pizza,Gluten Free Options",
		"rating" : "3.5",
		"location" : {
			"latitude" : 50.902287,
			"longtitude" : 1.413303
		}
	},
	{
		"name" : "Scoozi",
		"category" : "Italian,Pizza",
		"rating" : "3.5",
		"location" : {
			"latitude" : 50.897778,
			"longtitude" : 1.39737
		}
	},
	{
		"name" : "The Moby Dick",
		"category" : "Fast food,Seafood",
		"rating" : "4.5",
		"location" : {
			"latitude" : 50.922485,
			"longtitude" : 1.432872
		}
	},
	{
		"name" : "The Jackpot Cafe",
		"category" : "Cafe,British",
		"rating" : "4.5",
		"location" : {
			"latitude" : 50.933544,
			"longtitude" : 1.382686
		}
	},
	{
		"name" : "Eastern Nights",
		"category" : "Indian,Asian,Eastern European",
		"rating" : "4",
		"location" : {
			"latitude" : 50.91449,
			"longtitude" : 1.336181
		}
	},
	{
		"name" : "The Terrace Sandwich Bar",
		"category" : "null",
		"rating" : "5",
		"location" : {
			"latitude" : 50.897636,
			"longtitude" : 1.39808
		}
	},
	{
		"name" : "Lils Plaice",
		"category" : "Seafood",
		"rating" : "4.5",
		"location" : {
			"latitude" : 50.92811,
			"longtitude" : 1.450907
		}
	},
	{
		"name" : "Macho's",
		"category" : "Fast food,American",
		"rating" : "4.5",
		"location" : {
			"latitude" : 50.90714,
			"longtitude" : 1.400594
		}
	},
	{
		"name" : "Romna Tandoori Indian Take Away",
		"category" : "Indian",
		"rating" : "4.5",
		"location" : {
			"latitude" : 50.9151,
			"longtitude" : 1.486767
		}
	},
	{
		"name" : "Tortilla",
		"category" : "Mexican,Fast food,Latin,Spanish,South American",
		"rating" : "4",
		"location" : {
			"latitude" : "null",
			"longtitude" : "null"
		}
	},
	{
		"name" : "The Yacht Tavern",
		"category" : "null",
		"rating" : "4.5",
		"location" : {
			"latitude" : 50.901054,
			"longtitude" : 1.381272
		}
	},
	{
		"name" : "The Haywain Crown Carveries",
		"category" : "British,Pub",
		"rating" : "3.5",
		"location" : {
			"latitude" : 50.91763,
			"longtitude" : 1.564811
		}
	},
	{
		"name" : "Cafe Reflections",
		"category" : "Cafe,British",
		"rating" : "4.5",
		"location" : {
			"latitude" : 50.92175,
			"longtitude" : 1.432272
		}
	},
	{
		"name" : "Gourmet Burger Kitchen",
		"category" : "American,Pub,Vegetarian Friendly,Gluten Free Options",
		"rating" : "3.5",
		"location" : {
			"latitude" : 50.907677,
			"longtitude" : 1.405033
		}
	},
	{
		"name" : "Round About Cafe",
		"category" : "British",
		"rating" : "4.5",
		"location" : {
			"latitude" : 50.94184,
			"longtitude" : 1.373008
		}
	},
	{
		"name" : "Todd English",
		"category" : "American",
		"rating" : "4.5",
		"location" : {
			"latitude" : 51.27179,
			"longtitude" : 1.0895
		}
	},
	{
		"name" : "Royal India",
		"category" : "Indian,Asian,Eastern European",
		"rating" : "4.5",
		"location" : {
			"latitude" : 50.897823,
			"longtitude" : 1.376522
		}
	},
	{
		"name" : "Poppins",
		"category" : "null",
		"rating" : "4",
		"location" : {
			"latitude" : 50.90228,
			"longtitude" : 1.404487
		}
	},
	{
		"name" : "Roosters Piri Piri Southampton",
		"category" : "Fast food,Lebanese,Mediterranean,European,Portuguese",
		"rating" : "4",
		"location" : {
			"latitude" : 50.91168,
			"longtitude" : 1.404467
		}
	},
	{
		"name" : "Cafe Goa",
		"category" : "null",
		"rating" : "5",
		"location" : {
			"latitude" : 50.906693,
			"longtitude" : 1.404538
		}
	},
	{
		"name" : "Signature Restaurant",
		"category" : "null",
		"rating" : "5",
		"location" : {
			"latitude" : 50.900246,
			"longtitude" : 1.403576
		}
	},
	{
		"name" : "Pizza Cottage",
		"category" : "null",
		"rating" : "5",
		"location" : {
			"latitude" : "null",
			"longtitude" : "null"
		}
	},
	{
		"name" : "Pig n Whistle",
		"category" : "Cafe,Pub",
		"rating" : "5",
		"location" : {
			"latitude" : 50.912197,
			"longtitude" : 1.420961
		}
	},
	{
		"name" : "Puja Sweet Mart",
		"category" : "null",
		"rating" : "5",
		"location" : {
			"latitude" : 50.909912,
			"longtitude" : 1.399347
		}
	},
	{
		"name" : "Coleman's",
		"category" : "null",
		"rating" : "5",
		"location" : {
			"latitude" : 50.908607,
			"longtitude" : 1.411988
		}
	},
	{
		"name" : "Romsey Golf Club",
		"category" : "null",
		"rating" : "5",
		"location" : {
			"latitude" : "null",
			"longtitude" : "null"
		}
	},
	{
		"name" : "Jacqs sandwich bar",
		"category" : "British",
		"rating" : "5",
		"location" : {
			"latitude" : 50.89713,
			"longtitude" : 1.379677
		}
	},
	{
		"name" : "Broadstreet Restaurant and Bar",
		"category" : "British,International,European",
		"rating" : "4",
		"location" : {
			"latitude" : 50.921593,
			"longtitude" : 1.210172
		}
	},

	{
		"name" : "McDonald's",
		"category" : "Fast food",
		"rating" : "4",
		"location" : {
			"latitude" : 50.90376,
			"longtitude" : 1.41271
		}
	},
	{
		"name" : "Imli Indian Cuisine",
		"category" : "Indian,Asian",
		"rating" : "4.5",
		"location" : {
			"latitude" : 50.928616,
			"longtitude" : 1.331798
		}
	},
	{
		"name" : "90 Degrees",
		"category" : "British",
		"rating" : "4",
		"location" : {
			"latitude" : 50.912586,
			"longtitude" : 1.40559
		}
	},
	{
		"name" : "The Retro Diner",
		"category" : "Cafe,American",
		"rating" : "4.5",
		"location" : {
			"latitude" : 50.914707,
			"longtitude" : 1.423639
		}
	},
	{
		"name" : "Nando's",
		"category" : "European,Portuguese",
		"rating" : "3.5",
		"location" : {
			"latitude" : 50.9073,
			"longtitude" : 1.40462
		}
	},
	{
		"name" : "TGI Friday's",
		"category" : "American,Pub",
		"rating" : "3",
		"location" : {
			"latitude" : 50.90376,
			"longtitude" : 1.41271
		}
	},
	{
		"name" : "Golden Pool",
		"category" : "null",
		"rating" : "4.5",
		"location" : {
			"latitude" : 50.92504,
			"longtitude" : 1.463933
		}
	},
	{
		"name" : "Taste Of China",
		"category" : "Chinese",
		"rating" : "4.5",
		"location" : {
			"latitude" : 50.90391,
			"longtitude" : 1.396707
		}
	},
	{
		"name" : "Blue box cafe",
		"category" : "Cafe",
		"rating" : "4",
		"location" : {
			"latitude" : "null",
			"longtitude" : "null"
		}
	},
	{
		"name" : "The Cork and Cheese Company",
		"category" : "Cafe,European,Delicatessen",
		"rating" : "4.5",
		"location" : {
			"latitude" : 50.87215,
			"longtitude" : 1.269594
		}
	},
	{
		"name" : "Shakeaway",
		"category" : "null",
		"rating" : "4.5",
		"location" : {
			"latitude" : 50.906094,
			"longtitude" : 1.405811
		}
	},
	{
		"name" : "Poppy's cafe",
		"category" : "null",
		"rating" : "5",
		"location" : {
			"latitude" : 50.920467,
			"longtitude" : 1.43129
		}
	},
	{
		"name" : "Cafe at The Hawthorns",
		"category" : "Cafe",
		"rating" : "4",
		"location" : {
			"latitude" : "null",
			"longtitude" : "null"
		}
	},
	{
		"name" : "Petrony's Pizza",
		"category" : "Italian,Pizza",
		"rating" : "4",
		"location" : {
			"latitude" : 50.918667,
			"longtitude" : 1.486764
		}
	},
	{
		"name" : "The Place to Eat John Lewis",
		"category" : "Cafe,British,Gluten Free Options",
		"rating" : "3.5",
		"location" : {
			"latitude" : 50.903862,
			"longtitude" : 1.407474
		}
	},
	{
		"name" : "The Big Breakfast",
		"category" : "null",
		"rating" : "4",
		"location" : {
			"latitude" : 50.90168,
			"longtitude" : 1.403334
		}
	},
	{
		"name" : "The Frying Fish",
		"category" : "Seafood",
		"rating" : "4.5",
		"location" : {
			"latitude" : 50.914486,
			"longtitude" : 1.336119
		}
	},
	{
		"name" : "The Anchor At Redbridge",
		"category" : "British,Pub",
		"rating" : "4",
		"location" : {
			"latitude" : 50.92383,
			"longtitude" : 1.475252
		}
	},
	{
		"name" : "Frankie & Benny's New York Italian Restaurant & Bar - Southampton",
		"category" : "Italian,American,Pizza",
		"rating" : "3",
		"location" : {
			"latitude" : 50.90253,
			"longtitude" : 1.414017
		}
	},
	{
		"name" : "Persian Paradise",
		"category" : "Middle Eastern,Persian",
		"rating" : "4",
		"location" : {
			"latitude" : 50.923283,
			"longtitude" : 1.394845
		}
	},
	{
		"name" : "Fox & Hounds",
		"category" : "Caribbean,Polish,European,Pub",
		"rating" : "5",
		"location" : {
			"latitude" : 50.88229,
			"longtitude" : 1.31817
		}
	},
	{
		"name" : "Wild Orchid",
		"category" : "British",
		"rating" : "5",
		"location" : {
			"latitude" : "null",
			"longtitude" : "null"
		}
	},
	{
		"name" : "Bistro Rumi's",
		"category" : "null",
		"rating" : "5",
		"location" : {
			"latitude" : 50.911125,
			"longtitude" : 1.405527
		}
	},
	{
		"name" : "City Beijing",
		"category" : "Chinese",
		"rating" : "5",
		"location" : {
			"latitude" : 50.90014,
			"longtitude" : 1.404217
		}
	},
	{
		"name" : "The lounge",
		"category" : "Indian",
		"rating" : "5",
		"location" : {
			"latitude" : "null",
			"longtitude" : "null"
		}
	},
	{
		"name" : "Pride Of India",
		"category" : "Indian",
		"rating" : "5",
		"location" : {
			"latitude" : 50.912003,
			"longtitude" : 1.405976
		}
	},
	{
		"name" : "Curryhut",
		"category" : "Indian",
		"rating" : "5",
		"location" : {
			"latitude" : 50.87169,
			"longtitude" : 1.268496
		}
	},
	{
		"name" : "The Obelisk Pub",
		"category" : "Pub",
		"rating" : "5",
		"location" : {
			"latitude" : 50.89393,
			"longtitude" : 1.371266
		}
	},
	{
		"name" : "Dersim Takeaway",
		"category" : "null",
		"rating" : "5",
		"location" : {
			"latitude" : 50.909046,
			"longtitude" : 1.404459
		}
	},
	{
		"name" : "The Dragon Palace",
		"category" : "null",
		"rating" : "5",
		"location" : {
			"latitude" : 50.905033,
			"longtitude" : 1.404026
		}
	},

	{
		"name" : "Shirley's",
		"category" : "null",
		"rating" : "5",
		"location" : {
			"latitude" : 50.922016,
			"longtitude" : 1.433031
		}
	},
	{
		"name" : "Tasty Curry",
		"category" : "null",
		"rating" : "5",
		"location" : {
			"latitude" : "null",
			"longtitude" : "null"
		}
	},
	{
		"name" : "Bucks Head",
		"category" : "null",
		"rating" : "5",
		"location" : {
			"latitude" : "null",
			"longtitude" : "null"
		}
	},
	{
		"name" : "The Regents Park",
		"category" : "null",
		"rating" : "5",
		"location" : {
			"latitude" : 50.915688,
			"longtitude" : 1.442864
		}
	},
	{
		"name" : "Portswood Chinese",
		"category" : "Chinese",
		"rating" : "5",
		"location" : {
			"latitude" : 50.92754,
			"longtitude" : 1.387873
		}
	},
	{
		"name" : "Shama Restaurant",
		"category" : "Middle Eastern",
		"rating" : "5",
		"location" : {
			"latitude" : 50.904587,
			"longtitude" : 1.396627
		}
	},
	{
		"name" : "Evergreen Chinese Takeaway",
		"category" : "Chinese",
		"rating" : "5",
		"location" : {
			"latitude" : "null",
			"longtitude" : "null"
		}
	},
	{
		"name" : "The Terracotta Room",
		"category" : "null",
		"rating" : "5",
		"location" : {
			"latitude" : 50.93513,
			"longtitude" : 1.235983
		}
	},
	{
		"name" : "Wongs Garden",
		"category" : "null",
		"rating" : "5",
		"location" : {
			"latitude" : 50.9086,
			"longtitude" : 1.359892
		}
	},
	{
		"name" : "The Old Farmhouse",
		"category" : "null",
		"rating" : "5",
		"location" : {
			"latitude" : 50.91477,
			"longtitude" : 1.392514
		}
	},
	{
		"name" : "Medbar",
		"category" : "Seafood,Spanish",
		"rating" : "3.5",
		"location" : {
			"latitude" : 50.898075,
			"longtitude" : 1.398507
		}
	},
	{
		"name" : "The Anvil Cafe",
		"category" : "null",
		"rating" : "5",
		"location" : {
			"latitude" : 50.94647,
			"longtitude" : 1.22156
		}
	},
	{
		"name" : "Holbury Chinese",
		"category" : "Chinese",
		"rating" : "4",
		"location" : {
			"latitude" : 50.831623,
			"longtitude" : 1.38014
		}
	},
	{
		"name" : "Spudulike",
		"category" : "null",
		"rating" : "4.5",
		"location" : {
			"latitude" : 50.905834,
			"longtitude" : 1.404728
		}
	},
	{
		"name" : "Shooting Star",
		"category" : "Pub",
		"rating" : "4",
		"location" : {
			"latitude" : 50.916183,
			"longtitude" : 1.396088
		}
	},
	{
		"name" : "Crepes",
		"category" : "French,British",
		"rating" : "4.5",
		"location" : {
			"latitude" : "null",
			"longtitude" : "null"
		}
	},
	{
		"name" : "The Salmon Leap Pub",
		"category" : "British,Pub",
		"rating" : "4",
		"location" : {
			"latitude" : 50.92451,
			"longtitude" : 1.48965
		}
	},
	{
		"name" : "The Boat shop Cafe",
		"category" : "Cafe,Vegetarian Friendly",
		"rating" : "4.5",
		"location" : {
			"latitude" : 50.898525,
			"longtitude" : 1.378494
		}
	},
	{
		"name" : "Krispy Kreme",
		"category" : "null",
		"rating" : "4.5",
		"location" : {
			"latitude" : 50.903862,
			"longtitude" : 1.407474
		}
	},
	{
		"name" : "Valentino's of Warsash",
		"category" : "Cafe",
		"rating" : "4.5",
		"location" : {
			"latitude" : 50.85323,
			"longtitude" : 1.30099
		}
	},
	{
		"name" : "Juniper Berry",
		"category" : "Pub,British",
		"rating" : "3.5",
		"location" : {
			"latitude" : 50.900135,
			"longtitude" : 1.405869
		}
	},
	{
		"name" : "Pizza Hut",
		"category" : "Pizza",
		"rating" : "3.5",
		"location" : {
			"latitude" : 50.93056,
			"longtitude" : 1.30853
		}
	},
	{
		"name" : "MishMish World food cafe",
		"category" : "Italian,Indian,Asian,Middle Eastern",
		"rating" : "5",
		"location" : {
			"latitude" : 50.90123,
			"longtitude" : 1.404202
		}
	},
	{
		"name" : "Strawberry Field Tavern",
		"category" : "British,Pub",
		"rating" : "3.5",
		"location" : {
			"latitude" : 50.863853,
			"longtitude" : 1.275409
		}
	},
	{
		"name" : "Thai Kitchen",
		"category" : "Asian,Thai",
		"rating" : "4",
		"location" : {
			"latitude" : 50.80867,
			"longtitude" : 1.36775
		}
	},
	{
		"name" : "The Stile",
		"category" : "Pub",
		"rating" : "4",
		"location" : {
			"latitude" : 50.937866,
			"longtitude" : 1.396735
		}
	},
	{
		"name" : "king alfred pub",
		"category" : "Pub",
		"rating" : "4.5",
		"location" : {
			"latitude" : 50.907574,
			"longtitude" : 1.39465
		}
	},
	{
		"name" : "Rib Ranch",
		"category" : "American,Barbecue",
		"rating" : "3.5",
		"location" : {
			"latitude" : 50.92761,
			"longtitude" : 1.388234
		}
	},
	{
		"name" : "The Olive Tree",
		"category" : "British",
		"rating" : "3.5",
		"location" : {
			"latitude" : "null",
			"longtitude" : "null"
		}
	},
	{
		"name" : "Bright Water Inn Southampton J D Wetherspoon",
		"category" : "Indian,British,Pub",
		"rating" : "3.5",
		"location" : {
			"latitude" : 50.91875,
			"longtitude" : 1.429431
		}
	},

	{
		"name" : "Victory Inn",
		"category" : "British",
		"rating" : "4",
		"location" : {
			"latitude" : 50.89947,
			"longtitude" : 1.403803
		}
	},
	{
		"name" : "The Strand",
		"category" : "British",
		"rating" : "4.5",
		"location" : {
			"latitude" : 50.903133,
			"longtitude" : 1.403043
		}
	},
	{
		"name" : "Pizza Hut",
		"category" : "Italian,Pizza",
		"rating" : "3.5",
		"location" : {
			"latitude" : "null",
			"longtitude" : "null"
		}
	},
	{
		"name" : "Junction Inn",
		"category" : "Pub",
		"rating" : "4.5",
		"location" : {
			"latitude" : "null",
			"longtitude" : "null"
		}
	},
	{
		"name" : "Bangla Balti House",
		"category" : "Indian,Asian",
		"rating" : "4",
		"location" : {
			"latitude" : 50.93144,
			"longtitude" : 1.424504
		}
	},
	{
		"name" : "Happy Palace",
		"category" : "null",
		"rating" : "4.5",
		"location" : {
			"latitude" : 50.918827,
			"longtitude" : 1.486168
		}
	},
	{
		"name" : "The Lucky House",
		"category" : "null",
		"rating" : "4.5",
		"location" : {
			"latitude" : 50.930004,
			"longtitude" : 1.439202
		}
	},
	{
		"name" : "Tasty Plaice",
		"category" : "Fast food,Seafood",
		"rating" : "4",
		"location" : {
			"latitude" : 50.897877,
			"longtitude" : 1.378315
		}
	},
	{
		"name" : "Star Fried Chicken",
		"category" : "null",
		"rating" : "4",
		"location" : {
			"latitude" : 50.93826,
			"longtitude" : 1.392707
		}
	},
	{
		"name" : "B L T's",
		"category" : "null",
		"rating" : "4.5",
		"location" : {
			"latitude" : 50.908783,
			"longtitude" : 1.411747
		}
	},
	{
		"name" : "Magic Wok",
		"category" : "Chinese",
		"rating" : "4.5",
		"location" : {
			"latitude" : 50.917793,
			"longtitude" : 1.427338
		}
	},
	{
		"name" : "Peri's Grill",
		"category" : "null",
		"rating" : "4.5",
		"location" : {
			"latitude" : 50.903946,
			"longtitude" : 1.39666
		}
	},
	{
		"name" : "Subway",
		"category" : "null",
		"rating" : "4",
		"location" : {
			"latitude" : 50.869312,
			"longtitude" : 1.399919
		}
	},
	{
		"name" : "The Cottage Inn",
		"category" : "British,Pub",
		"rating" : "4.5",
		"location" : {
			"latitude" : 50.879494,
			"longtitude" : 1.33966
		}
	},
	{
		"name" : "Taste Of India",
		"category" : "Indian",
		"rating" : "4.5",
		"location" : {
			"latitude" : 50.938286,
			"longtitude" : 1.392208
		}
	},
	{
		"name" : "Nosh",
		"category" : "Cafe",
		"rating" : "4.5",
		"location" : {
			"latitude" : 50.90276,
			"longtitude" : 1.401742
		}
	},
	{
		"name" : "Chopsticks",
		"category" : "Chinese,Asian,Fast food",
		"rating" : "4",
		"location" : {
			"latitude" : 50.91845,
			"longtitude" : 1.487377
		}
	},
	{
		"name" : "The Hungry Diner",
		"category" : "",
		"rating" : "3.5",
		"location" : {
			"latitude" : 50.92202,
			"longtitude" : 1.433038
		}
	},
	{
		"name" : "Ashlett Club",
		"category" : "British",
		"rating" : "4.5",
		"location" : {
			"latitude" : 50.82699,
			"longtitude" : 1.34752
		}
	},
	{
		"name" : "The Social",
		"category" : "British,Pub",
		"rating" : "4.5",
		"location" : {
			"latitude" : 50.912346,
			"longtitude" : 1.405463
		}
	},
	{
		"name" : "Hong Kong House",
		"category" : "Chinese",
		"rating" : "4",
		"location" : {
			"latitude" : 50.914955,
			"longtitude" : 1.431906
		}
	},
	{
		"name" : "Tucks Cafe",
		"category" : "British",
		"rating" : "4",
		"location" : {
			"latitude" : 50.923203,
			"longtitude" : 1.434611
		}
	},
	{
		"name" : "allsorts psychic cafe",
		"category" : "null",
		"rating" : "5",
		"location" : {
			"latitude" : 50.9127,
			"longtitude" : 1.405358
		}
	},
	{
		"name" : "Balkh Restaurant",
		"category" : "Middle Eastern",
		"rating" : "4.5",
		"location" : {
			"latitude" : 50.906147,
			"longtitude" : 1.396508
		}
	},
	{
		"name" : "Full House",
		"category" : "null",
		"rating" : "4",
		"location" : {
			"latitude" : 50.922348,
			"longtitude" : 1.34326
		}
	},
	{
		"name" : "Frankie and Bennys",
		"category" : "Italian,American",
		"rating" : "3.5",
		"location" : {
			"latitude" : "null",
			"longtitude" : "null"
		}
	},
	{
		"name" : "The Victory",
		"category" : "Chinese,Fast food,Asian",
		"rating" : "3.5",
		"location" : {
			"latitude" : 50.91263,
			"longtitude" : 1.35422
		}
	},
	{
		"name" : "The Mitre",
		"category" : "British,Pub",
		"rating" : "3",
		"location" : {
			"latitude" : 50.9267,
			"longtitude" : 1.390751
		}
	},
	{
		"name" : "EBB & Flow",
		"category" : "British,Cafe",
		"rating" : "3.5",
		"location" : {
			"latitude" : 50.906467,
			"longtitude" : 1.404298
		}
	},
	{
		"name" : "Captain Masalla",
		"category" : "null",
		"rating" : "4.5",
		"location" : {
			"latitude" : 50.923714,
			"longtitude" : 1.375553
		}
	},

	{
		"name" : "Pitstop Food & News",
		"category" : "Fast food",
		"rating" : "4",
		"location" : {
			"latitude" : 50.908634,
			"longtitude" : 1.387516
		}
	},
	{
		"name" : "Golden River",
		"category" : "null",
		"rating" : "4.5",
		"location" : {
			"latitude" : 50.925037,
			"longtitude" : 1.375813
		}
	},
	{
		"name" : "Prezzo",
		"category" : "Italian",
		"rating" : "4",
		"location" : {
			"latitude" : 50.898193,
			"longtitude" : 1.398516
		}
	},
	{
		"name" : "Frying Nemo",
		"category" : "null",
		"rating" : "4",
		"location" : {
			"latitude" : 50.925358,
			"longtitude" : 1.392897
		}
	},
	{
		"name" : "Touch Of Spice",
		"category" : "null",
		"rating" : "4.5",
		"location" : {
			"latitude" : "null",
			"longtitude" : "null"
		}
	},
	{
		"name" : "Bitz And Pizzaz",
		"category" : "null",
		"rating" : "4.5",
		"location" : {
			"latitude" : 50.900326,
			"longtitude" : 1.401239
		}
	},
	{
		"name" : "The Big Cheese Hungry Horse",
		"category" : "British,Pub",
		"rating" : "3.5",
		"location" : {
			"latitude" : 50.920788,
			"longtitude" : 1.3562
		}
	},
	{
		"name" : "West End Kebab and Pizza Place",
		"category" : "Pizza,Fast food",
		"rating" : "3.5",
		"location" : {
			"latitude" : 50.92746,
			"longtitude" : 1.33584
		}
	},
	{
		"name" : "Brigadeer Gerard",
		"category" : "British,Pub",
		"rating" : "3.5",
		"location" : {
			"latitude" : "null",
			"longtitude" : "null"
		}
	},
	{
		"name" : "Lucky 8",
		"category" : "Chinese,Fast food,British,Asian",
		"rating" : "3.5",
		"location" : {
			"latitude" : 50.945164,
			"longtitude" : 1.462623
		}
	},
	{
		"name" : "Jolly Friar",
		"category" : "null",
		"rating" : "4",
		"location" : {
			"latitude" : 50.8747,
			"longtitude" : 1.354713
		}
	},
	{
		"name" : "Costa Express",
		"category" : "null",
		"rating" : "4.5",
		"location" : {
			"latitude" : "null",
			"longtitude" : "null"
		}
	},
	{
		"name" : "Cafe Giardino",
		"category" : "Cafe,British",
		"rating" : "3.5",
		"location" : {
			"latitude" : 50.903423,
			"longtitude" : 1.403636
		}
	},
	{
		"name" : "Chows Dynasty",
		"category" : "Chinese,Asian",
		"rating" : "3.5",
		"location" : {
			"latitude" : 50.864983,
			"longtitude" : 1.290543
		}
	},
	{
		"name" : "Fantinis",
		"category" : "Italian",
		"rating" : "3.5",
		"location" : {
			"latitude" : 50.895157,
			"longtitude" : 1.405314
		}
	},
	{
		"name" : "The Avenue",
		"category" : "Chinese,Asian,Fast food",
		"rating" : "3.5",
		"location" : {
			"latitude" : 50.919037,
			"longtitude" : 1.404332
		}
	},
	{
		"name" : "Cove",
		"category" : "null",
		"rating" : "4",
		"location" : {
			"latitude" : 50.91004,
			"longtitude" : 1.38338
		}
	},
	{
		"name" : "Kara",
		"category" : "Turkish,Mediterranean,Middle Eastern,Persian,Halal",
		"rating" : "4",
		"location" : {
			"latitude" : 50.89972,
			"longtitude" : 1.403993
		}
	},
	{
		"name" : "Feasters LTD",
		"category" : "null",
		"rating" : "3.5",
		"location" : {
			"latitude" : 50.921005,
			"longtitude" : 1.431805
		}
	},
	{
		"name" : "The Chippy",
		"category" : "null",
		"rating" : "3.5",
		"location" : {
			"latitude" : 50.93109,
			"longtitude" : 1.425165
		}
	},
	{
		"name" : "The Welcome Inn",
		"category" : "British",
		"rating" : "4",
		"location" : {
			"latitude" : "null",
			"longtitude" : "null"
		}
	},
	{
		"name" : "Texas Grill",
		"category" : "American",
		"rating" : "3.5",
		"location" : {
			"latitude" : 50.916412,
			"longtitude" : 1.395887
		}
	},
	{
		"name" : "The curry house",
		"category" : "Indian,Asian",
		"rating" : "4.5",
		"location" : {
			"latitude" : 50.90954,
			"longtitude" : 1.360365
		}
	},
	{
		"name" : "The Cleavland Public House",
		"category" : "Pub",
		"rating" : "4.5",
		"location" : {
			"latitude" : 50.96693,
			"longtitude" : 1.351603
		}
	},
	{
		"name" : "New Jade Palace",
		"category" : "Chinese",
		"rating" : "4",
		"location" : {
			"latitude" : "null",
			"longtitude" : "null"
		}
	},
	{
		"name" : "Ye Olde Whyte Harte",
		"category" : "British",
		"rating" : "3.5",
		"location" : {
			"latitude" : 50.914227,
			"longtitude" : 1.270916
		}
	},
	{
		"name" : "Shapla Tandoori Takeaway",
		"category" : "Indian",
		"rating" : "4",
		"location" : {
			"latitude" : 50.91513,
			"longtitude" : 1.487344
		}
	},
	{
		"name" : "Pizza Box",
		"category" : "null",
		"rating" : "4",
		"location" : {
			"latitude" : 50.93819,
			"longtitude" : 1.380058
		}
	},
	{
		"name" : "Wings",
		"category" : "null",
		"rating" : "4",
		"location" : {
			"latitude" : 50.933376,
			"longtitude" : 1.444472
		}
	},
	{
		"name" : "The Park Gate Tandoori",
		"category" : "Indian,Asian,Eastern European",
		"rating" : "3",
		"location" : {
			"latitude" : 50.874798,
			"longtitude" : 1.266031
		}
	},

	{
		"name" : "Goblets",
		"category" : "Pub",
		"rating" : "4",
		"location" : {
			"latitude" : 50.90669,
			"longtitude" : 1.40454
		}
	},
	{
		"name" : "Spice",
		"category" : "Indian",
		"rating" : "4",
		"location" : {
			"latitude" : 50.917458,
			"longtitude" : 1.374752
		}
	},
	{
		"name" : "The Dolphin",
		"category" : "British,Pub",
		"rating" : "3.5",
		"location" : {
			"latitude" : 50.914257,
			"longtitude" : 1.27068
		}
	},
	{
		"name" : "Roosters Piri Piri",
		"category" : "Fast food,Vegetarian Friendly",
		"rating" : "3.5",
		"location" : {
			"latitude" : 50.92642,
			"longtitude" : 1.392203
		}
	},
	{
		"name" : "Bedfords Arms Southampton",
		"category" : "British,Pub",
		"rating" : "3.5",
		"location" : {
			"latitude" : 50.91221,
			"longtitude" : 1.406082
		}
	},
	{
		"name" : "Panda",
		"category" : "Chinese,Asian",
		"rating" : "3.5",
		"location" : {
			"latitude" : 50.91205,
			"longtitude" : 1.406032
		}
	},
	{
		"name" : "E-Sun-Way",
		"category" : "null",
		"rating" : "4",
		"location" : {
			"latitude" : 50.938232,
			"longtitude" : 1.392773
		}
	},
	{
		"name" : "The Globe Bar & Kitchen",
		"category" : "",
		"rating" : "3.5",
		"location" : {
			"latitude" : 50.953476,
			"longtitude" : 1.359801
		}
	},
	{
		"name" : "Tosca's Ristorante Italiano",
		"category" : "Italian",
		"rating" : "4",
		"location" : {
			"latitude" : 50.90892,
			"longtitude" : 1.41199
		}
	},
	{
		"name" : "St Marys",
		"category" : "null",
		"rating" : "4.5",
		"location" : {
			"latitude" : 50.906734,
			"longtitude" : 1.390595
		}
	},
	{
		"name" : "moon river",
		"category" : "Chinese",
		"rating" : "4.5",
		"location" : {
			"latitude" : 50.92682,
			"longtitude" : 1.391107
		}
	},
	{
		"name" : "Old Farmhouse - Hungry Horse",
		"category" : "British,Pub",
		"rating" : "3.5",
		"location" : {
			"latitude" : 50.91733,
			"longtitude" : 1.502607
		}
	},
	{
		"name" : "The Slug And Lettuce",
		"category" : "British,Pub",
		"rating" : "3.5",
		"location" : {
			"latitude" : 50.906193,
			"longtitude" : 1.404641
		}
	},
	{
		"name" : "Pizza Place",
		"category" : "null",
		"rating" : "4",
		"location" : {
			"latitude" : 50.92584,
			"longtitude" : 1.364358
		}
	},
	{
		"name" : "The Wine Bar And Bistro",
		"category" : "",
		"rating" : "4",
		"location" : {
			"latitude" : "null",
			"longtitude" : "null"
		}
	},
	{
		"name" : "Woolston Cafe",
		"category" : "null",
		"rating" : "4",
		"location" : {
			"latitude" : 50.897972,
			"longtitude" : 1.377404
		}
	},
	{
		"name" : "La Mexicana",
		"category" : "Mexican",
		"rating" : "4",
		"location" : {
			"latitude" : 50.911987,
			"longtitude" : 1.403797
		}
	},
	{
		"name" : "Le Jardin Restuarant",
		"category" : "British",
		"rating" : "4",
		"location" : {
			"latitude" : 50.88124,
			"longtitude" : 1.44193
		}
	},
	{
		"name" : "China Wok",
		"category" : "null",
		"rating" : "4",
		"location" : {
			"latitude" : 50.905754,
			"longtitude" : 1.396625
		}
	},
	{
		"name" : "Subway",
		"category" : "null",
		"rating" : "4",
		"location" : {
			"latitude" : 50.90361,
			"longtitude" : 1.416407
		}
	},
	{
		"name" : "Marks and Spencers",
		"category" : "null",
		"rating" : "4",
		"location" : {
			"latitude" : "null",
			"longtitude" : "null"
		}
	},
	{
		"name" : "The Two Eyes Burger Bar",
		"category" : "null",
		"rating" : "4",
		"location" : {
			"latitude" : 50.920494,
			"longtitude" : 1.431442
		}
	},
	{
		"name" : "Oriental Chinese Takeawy",
		"category" : "null",
		"rating" : "4",
		"location" : {
			"latitude" : 50.926674,
			"longtitude" : 1.391188
		}
	},
	{
		"name" : "Label Food",
		"category" : "null",
		"rating" : "4",
		"location" : {
			"latitude" : 50.931107,
			"longtitude" : 1.400426
		}
	},
	{
		"name" : "Dominica kitchen",
		"category" : "null",
		"rating" : "4",
		"location" : {
			"latitude" : 50.90372,
			"longtitude" : 1.396463
		}
	},
	{
		"name" : "Taj Mahal Indian Takeaway",
		"category" : "null",
		"rating" : "4",
		"location" : {
			"latitude" : 50.934586,
			"longtitude" : 1.418048
		}
	},
	{
		"name" : "The Tramstop Bar & Kitchen",
		"category" : "Pub",
		"rating" : "4",
		"location" : {
			"latitude" : 50.926373,
			"longtitude" : 1.391699
		}
	},
	{
		"name" : "Ted's Fish & Chips",
		"category" : "Fast food,Turkish",
		"rating" : "4",
		"location" : {
			"latitude" : 50.911873,
			"longtitude" : 1.405778
		}
	},
	{
		"name" : "Papajohns pizza southampton",
		"category" : "Pizza",
		"rating" : "4",
		"location" : {
			"latitude" : 50.954166,
			"longtitude" : 1.212747
		}
	},
	{
		"name" : "Portobello Pizza",
		"category" : "null",
		"rating" : "4",
		"location" : {
			"latitude" : 50.917194,
			"longtitude" : 1.426489
		}
	},

	{
		"name" : "Smart Fish Bar",
		"category" : "Fast food,Seafood,British",
		"rating" : "3.5",
		"location" : {
			"latitude" : 50.86871,
			"longtitude" : 1.28804
		}
	},
	{
		"name" : "Subway - West Quay Dining",
		"category" : "null",
		"rating" : "3.5",
		"location" : {
			"latitude" : 50.9035,
			"longtitude" : 1.412546
		}
	},
	{
		"name" : "The Vineyard Restaurant",
		"category" : "European,British",
		"rating" : "4",
		"location" : {
			"latitude" : 50.92285,
			"longtitude" : 1.303155
		}
	},
	{
		"name" : "The Mystery Of Bengal",
		"category" : "Asian",
		"rating" : "4",
		"location" : {
			"latitude" : 50.914627,
			"longtitude" : 1.336595
		}
	},
	{
		"name" : "Manzil Tandori",
		"category" : "Indian,Asian,Eastern European",
		"rating" : "3.5",
		"location" : {
			"latitude" : 50.91501,
			"longtitude" : 1.39737
		}
	},
	{
		"name" : "Domino's Pizza",
		"category" : "Pizza",
		"rating" : "4",
		"location" : {
			"latitude" : 50.919727,
			"longtitude" : 1.491526
		}
	},
	{
		"name" : "Travellers Restaurant",
		"category" : "",
		"rating" : "3.5",
		"location" : {
			"latitude" : 50.85611,
			"longtitude" : 1.38932
		}
	},
	{
		"name" : "South Ocean",
		"category" : "Seafood",
		"rating" : "4.5",
		"location" : {
			"latitude" : 50.939686,
			"longtitude" : 1.379258
		}
	},
	{
		"name" : "Brewdog",
		"category" : "Pizza,Pub",
		"rating" : "3.5",
		"location" : {
			"latitude" : 50.91297,
			"longtitude" : 1.405646
		}
	},
	{
		"name" : "Fast Wok",
		"category" : "Chinese",
		"rating" : "4",
		"location" : {
			"latitude" : 50.932747,
			"longtitude" : 1.508902
		}
	},
	{
		"name" : "Finiki Foods",
		"category" : "null",
		"rating" : "3.5",
		"location" : {
			"latitude" : 50.908607,
			"longtitude" : 1.411988
		}
	},
	{
		"name" : "Tandoori Station",
		"category" : "Indian,Fast food,Asian,Halal",
		"rating" : "4",
		"location" : {
			"latitude" : "null",
			"longtitude" : "null"
		}
	},
	{
		"name" : "Winchester Restaurant",
		"category" : "European,British",
		"rating" : "4",
		"location" : {
			"latitude" : 50.93314,
			"longtitude" : 1.283963
		}
	},
	{
		"name" : "Red Lion Public House",
		"category" : "Pub",
		"rating" : "3.5",
		"location" : {
			"latitude" : 50.914284,
			"longtitude" : 1.358974
		}
	},
	{
		"name" : "Sainsbury's Cafe",
		"category" : "Cafe,British",
		"rating" : "3",
		"location" : {
			"latitude" : 50.92977,
			"longtitude" : 1.385245
		}
	},
	{
		"name" : "Zest Restaurant",
		"category" : "British,International",
		"rating" : "3.5",
		"location" : {
			"latitude" : 50.91932,
			"longtitude" : 1.21464
		}
	},
	{
		"name" : "The New Gourmet",
		"category" : "null",
		"rating" : "4",
		"location" : {
			"latitude" : 50.909245,
			"longtitude" : 1.417399
		}
	},
	{
		"name" : "Hamble Lane Fish Bar",
		"category" : "Seafood",
		"rating" : "4",
		"location" : {
			"latitude" : 50.86212,
			"longtitude" : 1.32921
		}
	},
	{
		"name" : "Afritopia Restaurant",
		"category" : "African",
		"rating" : "4",
		"location" : {
			"latitude" : 50.905422,
			"longtitude" : 1.396511
		}
	},
	{
		"name" : "Diamond Pizza And Kebab",
		"category" : "null",
		"rating" : "3.5",
		"location" : {
			"latitude" : 50.924156,
			"longtitude" : 1.375908
		}
	},
	{
		"name" : "The New Lucky House",
		"category" : "Fast food,Asian,Chinese",
		"rating" : "3.5",
		"location" : {
			"latitude" : 50.853733,
			"longtitude" : 1.300322
		}
	},
	{
		"name" : "Hin Wong",
		"category" : "null",
		"rating" : "3",
		"location" : {
			"latitude" : 50.874786,
			"longtitude" : 1.354927
		}
	},
	{
		"name" : "Quality Kebabs",
		"category" : "null",
		"rating" : "3.5",
		"location" : {
			"latitude" : 50.914272,
			"longtitude" : 1.423051
		}
	},
	{
		"name" : "The Little Fryer",
		"category" : "Fast food,Seafood",
		"rating" : "3.5",
		"location" : {
			"latitude" : "null",
			"longtitude" : "null"
		}
	},
	{
		"name" : "Massala",
		"category" : "Indian",
		"rating" : "3.5",
		"location" : {
			"latitude" : "null",
			"longtitude" : "null"
		}
	},
	{
		"name" : "Golden Dragon",
		"category" : "null",
		"rating" : "3.5",
		"location" : {
			"latitude" : "null",
			"longtitude" : "null"
		}
	},
	{
		"name" : "Shahi Tandoori",
		"category" : "Indian",
		"rating" : "4",
		"location" : {
			"latitude" : 50.919468,
			"longtitude" : 1.397894
		}
	},
	{
		"name" : "Costa Coffee",
		"category" : "Cafe,Fast food",
		"rating" : "3",
		"location" : {
			"latitude" : 50.91319,
			"longtitude" : 1.40496
		}
	},
	{
		"name" : "New Clock Inn - Hungry Horse",
		"category" : "British,Pub",
		"rating" : "3",
		"location" : {
			"latitude" : "null",
			"longtitude" : "null"
		}
	},
	{
		"name" : "The Frog and Parrot Pub",
		"category" : "British,Pub",
		"rating" : "3.5",
		"location" : {
			"latitude" : 50.908344,
			"longtitude" : 1.40463
		}
	},

	{
		"name" : "Pizzazz Pizza",
		"category" : "Pizza,Italian",
		"rating" : "3.5",
		"location" : {
			"latitude" : 50.938267,
			"longtitude" : 1.391729
		}
	},
	{
		"name" : "Roosters Piri Piri Chicken",
		"category" : "Fast food",
		"rating" : "3.5",
		"location" : {
			"latitude" : 50.92038,
			"longtitude" : 1.430621
		}
	},
	{
		"name" : "China Garden",
		"category" : "Chinese,Fast food,Asian",
		"rating" : "3.5",
		"location" : {
			"latitude" : 50.924824,
			"longtitude" : 1.437759
		}
	},
	{
		"name" : "West End Tandoori",
		"category" : "Indian",
		"rating" : "3.5",
		"location" : {
			"latitude" : 50.927498,
			"longtitude" : 1.335955
		}
	},
	{
		"name" : "New Forest Inn",
		"category" : "British,Pub",
		"rating" : "3.5",
		"location" : {
			"latitude" : 50.89226,
			"longtitude" : 1.523129
		}
	},
	{
		"name" : "Sals Kebab House",
		"category" : "null",
		"rating" : "3.5",
		"location" : {
			"latitude" : 50.911312,
			"longtitude" : 1.399465
		}
	},
	{
		"name" : "The Two Brothers",
		"category" : "Mexican,British,Pub,Vegetarian Friendly",
		"rating" : "3",
		"location" : {
			"latitude" : 50.932438,
			"longtitude" : 1.352935
		}
	},
	{
		"name" : "Elements Restaurant & Bar",
		"category" : "European",
		"rating" : "3.5",
		"location" : {
			"latitude" : 50.90479,
			"longtitude" : 1.414653
		}
	},
	{
		"name" : "velsheda",
		"category" : "British",
		"rating" : "3.5",
		"location" : {
			"latitude" : "null",
			"longtitude" : "null"
		}
	},
	{
		"name" : "Papu Restaurant",
		"category" : "Polish,European",
		"rating" : "3.5",
		"location" : {
			"latitude" : 50.912804,
			"longtitude" : 1.421711
		}
	},
	{
		"name" : "Super Pizza",
		"category" : "null",
		"rating" : "3.5",
		"location" : {
			"latitude" : 50.912376,
			"longtitude" : 1.399805
		}
	},
	{
		"name" : "The Glen",
		"category" : "British,Pub",
		"rating" : "3.5",
		"location" : {
			"latitude" : 50.85122,
			"longtitude" : 1.404231
		}
	},
	{
		"name" : "Best Kebab House",
		"category" : "null",
		"rating" : "3.5",
		"location" : {
			"latitude" : 50.91954,
			"longtitude" : 1.398411
		}
	},
	{
		"name" : "The Restaurant Marks and Spencer",
		"category" : "British,Cafe,Gluten Free Options",
		"rating" : "2.5",
		"location" : {
			"latitude" : 50.902935,
			"longtitude" : 1.407254
		}
	},
	{
		"name" : "M & S",
		"category" : "British",
		"rating" : "2.5",
		"location" : {
			"latitude" : 52.20543,
			"longtitude" : 0.90187
		}
	},
	{
		"name" : "Shah Faisal",
		"category" : "Indian,Asian",
		"rating" : "3.5",
		"location" : {
			"latitude" : 50.91449,
			"longtitude" : 1.36233
		}
	},
	{
		"name" : "Pizza Go Go",
		"category" : "null",
		"rating" : "3.5",
		"location" : {
			"latitude" : 50.913902,
			"longtitude" : 1.446437
		}
	},
	{
		"name" : "Lowford Balti Indian Take Away",
		"category" : "Asian,Indian,Fast food",
		"rating" : "3.5",
		"location" : {
			"latitude" : 50.889297,
			"longtitude" : 1.329332
		}
	},
	{
		"name" : "Fountain Court Hotel and Restaurant",
		"category" : "null",
		"rating" : "3.5",
		"location" : {
			"latitude" : 50.85574,
			"longtitude" : 1.392405
		}
	},
	{
		"name" : "Chives",
		"category" : "null",
		"rating" : "3",
		"location" : {
			"latitude" : 50.87536,
			"longtitude" : 1.281735
		}
	},
	{
		"name" : "Premier Inn Southampton West Restaurant",
		"category" : "British,Pub",
		"rating" : "3",
		"location" : {
			"latitude" : 50.952065,
			"longtitude" : 1.537327
		}
	},
	{
		"name" : "McDonald's",
		"category" : "null",
		"rating" : "3",
		"location" : {
			"latitude" : 50.91878,
			"longtitude" : 1.428538
		}
	},
	{
		"name" : "Harvester",
		"category" : "British",
		"rating" : "3",
		"location" : {
			"latitude" : 50.96832,
			"longtitude" : 1.35056
		}
	},
	{
		"name" : "Bombay Delight",
		"category" : "null",
		"rating" : "3",
		"location" : {
			"latitude" : 50.903484,
			"longtitude" : 1.346715
		}
	},
	{
		"name" : "The Cricketers Arms",
		"category" : "null",
		"rating" : "3.5",
		"location" : {
			"latitude" : 50.88958,
			"longtitude" : 1.31634
		}
	},
	{
		"name" : "Subway",
		"category" : "Fast food",
		"rating" : "3.5",
		"location" : {
			"latitude" : 50.901844,
			"longtitude" : 1.403274
		}
	},
	{
		"name" : "Captains Place",
		"category" : "Pub,British",
		"rating" : "3.5",
		"location" : {
			"latitude" : 50.89868,
			"longtitude" : 1.396465
		}
	},
	{
		"name" : "The Treasury",
		"category" : "British",
		"rating" : "3.5",
		"location" : {
			"latitude" : 50.899475,
			"longtitude" : 1.403962
		}
	},
	{
		"name" : "Pepe's piri piri",
		"category" : "Healthy",
		"rating" : "3.5",
		"location" : {
			"latitude" : 50.92456,
			"longtitude" : 1.39362
		}
	},
	{
		"name" : "Taj Tandoori",
		"category" : "Indian",
		"rating" : "4",
		"location" : {
			"latitude" : 50.91504,
			"longtitude" : 1.397455
		}
	},

	{
		"name" : "Mcdonald's Restaurants",
		"category" : "null",
		"rating" : "2.5",
		"location" : {
			"latitude" : 50.919884,
			"longtitude" : 1.463186
		}
	},
	{
		"name" : "Domino's Pizza",
		"category" : "Pizza",
		"rating" : "3",
		"location" : {
			"latitude" : 50.91449,
			"longtitude" : 1.36233
		}
	},
	{
		"name" : "Ghandi",
		"category" : "null",
		"rating" : "3",
		"location" : {
			"latitude" : 50.918755,
			"longtitude" : 1.486587
		}
	},
	{
		"name" : "Star Grill And Pizza",
		"category" : "Fast food,Turkish",
		"rating" : "3",
		"location" : {
			"latitude" : 50.937557,
			"longtitude" : 1.446938
		}
	},
	{
		"name" : "priyo",
		"category" : "Indian",
		"rating" : "3",
		"location" : {
			"latitude" : 50.92199,
			"longtitude" : 1.34411
		}
	},
	{
		"name" : "Upper Crust",
		"category" : "null",
		"rating" : "3",
		"location" : {
			"latitude" : "null",
			"longtitude" : "null"
		}
	},
	{
		"name" : "Szechuen Kitchen",
		"category" : "Chinese,Asian",
		"rating" : "3",
		"location" : {
			"latitude" : 50.90014,
			"longtitude" : 1.404217
		}
	},
	{
		"name" : "Golden Pond",
		"category" : "null",
		"rating" : "3.5",
		"location" : {
			"latitude" : 50.93268,
			"longtitude" : 1.44635
		}
	},
	{
		"name" : "Golden Bengal",
		"category" : "null",
		"rating" : "3",
		"location" : {
			"latitude" : 50.92451,
			"longtitude" : 1.381727
		}
	},
	{
		"name" : "Restaurant at Botleigh Grange",
		"category" : "British",
		"rating" : "3.5",
		"location" : {
			"latitude" : 50.919563,
			"longtitude" : 1.29712
		}
	},
	{
		"name" : "H Palace Restaurant & Takeaway",
		"category" : "Chinese",
		"rating" : "3",
		"location" : {
			"latitude" : 50.924633,
			"longtitude" : 1.375662
		}
	},
	{
		"name" : "Harvester",
		"category" : "null",
		"rating" : "4",
		"location" : {
			"latitude" : "null",
			"longtitude" : "null"
		}
	},
	{
		"name" : "Greggs Above Bar",
		"category" : "null",
		"rating" : "3",
		"location" : {
			"latitude" : 50.906113,
			"longtitude" : 1.404874
		}
	},
	{
		"name" : "Mirch Masala",
		"category" : "null",
		"rating" : "3",
		"location" : {
			"latitude" : 50.923126,
			"longtitude" : 1.395073
		}
	},
	{
		"name" : "Pizza 4 U",
		"category" : "null",
		"rating" : "3",
		"location" : {
			"latitude" : 50.90963,
			"longtitude" : 1.399118
		}
	},
	{
		"name" : "Plaice on the Green",
		"category" : "Fast food",
		"rating" : "3",
		"location" : {
			"latitude" : 50.876656,
			"longtitude" : 1.288386
		}
	},
	{
		"name" : "Mcdonald's Restaurant",
		"category" : "Fast food",
		"rating" : "3",
		"location" : {
			"latitude" : 50.904408,
			"longtitude" : 1.405594
		}
	},
	{
		"name" : "Golden Boat R2",
		"category" : "Asian,Chinese",
		"rating" : "3",
		"location" : {
			"latitude" : 50.9532,
			"longtitude" : 1.213067
		}
	},
	{
		"name" : "Starbucks",
		"category" : "Cafe",
		"rating" : "3",
		"location" : {
			"latitude" : 50.90561,
			"longtitude" : 1.404709
		}
	},
	{
		"name" : "Bold Forester",
		"category" : "British,Pub",
		"rating" : "3",
		"location" : {
			"latitude" : 50.861553,
			"longtitude" : 1.453062
		}
	},
	{
		"name" : "Kutis Express",
		"category" : "Vegetarian Friendly",
		"rating" : "3",
		"location" : {
			"latitude" : 50.940525,
			"longtitude" : 1.429889
		}
	},
	{
		"name" : "Debenhams",
		"category" : "null",
		"rating" : "3",
		"location" : {
			"latitude" : 50.902485,
			"longtitude" : 1.400203
		}
	},
	{
		"name" : "Encore",
		"category" : "British,Pub",
		"rating" : "3",
		"location" : {
			"latitude" : 50.90886,
			"longtitude" : 1.40659
		}
	},
	{
		"name" : "Christinas Restaurant",
		"category" : "British",
		"rating" : "3",
		"location" : {
			"latitude" : 50.901703,
			"longtitude" : 1.399523
		}
	},
	{
		"name" : "tiger lilly restaurant",
		"category" : "Chinese",
		"rating" : "3",
		"location" : {
			"latitude" : 50.924713,
			"longtitude" : 1.393735
		}
	},
	{
		"name" : "Burger King",
		"category" : "null",
		"rating" : "3",
		"location" : {
			"latitude" : 50.938503,
			"longtitude" : 1.38924
		}
	},
	{
		"name" : "The Boathouse Cafe",
		"category" : "Cafe,British",
		"rating" : "3",
		"location" : {
			"latitude" : 50.883045,
			"longtitude" : 1.299748
		}
	},
	{
		"name" : "Ocean Dragon",
		"category" : "Chinese,Asian",
		"rating" : "3",
		"location" : {
			"latitude" : 50.903294,
			"longtitude" : 1.404603
		}
	},
	{
		"name" : "The Chambers",
		"category" : "Italian,Pizza",
		"rating" : "3",
		"location" : {
			"latitude" : "null",
			"longtitude" : "null"
		}
	},
	{
		"name" : "The Cellar",
		"category" : "null",
		"rating" : "3",
		"location" : {
			"latitude" : 50.907608,
			"longtitude" : 1.405514
		}
	},

	{
		"name" : "Mcdonald's Restaurants",
		"category" : "null",
		"rating" : "3",
		"location" : {
			"latitude" : 50.918316,
			"longtitude" : 1.488851
		}
	},
	{
		"name" : "Alma Crown Carvery",
		"category" : "British,Pub",
		"rating" : "3",
		"location" : {
			"latitude" : 50.97036,
			"longtitude" : 1.25979
		}
	},
	{
		"name" : "Spice World Caribbean Takeaway",
		"category" : "Caribbean",
		"rating" : "3",
		"location" : {
			"latitude" : 50.905,
			"longtitude" : 1.396524
		}
	},
	{
		"name" : "Domino's Pizza",
		"category" : "Italian,Pizza",
		"rating" : "3",
		"location" : {
			"latitude" : 50.91766,
			"longtitude" : 1.42709
		}
	},
	{
		"name" : "Prezzo - Southampton",
		"category" : "Italian,Pizza,Gluten Free Options",
		"rating" : "3",
		"location" : {
			"latitude" : 50.89825,
			"longtitude" : 1.398431
		}
	},
	{
		"name" : "Charlies",
		"category" : "null",
		"rating" : "2.5",
		"location" : {
			"latitude" : 50.922073,
			"longtitude" : 1.371996
		}
	},
	{
		"name" : "Grill On The Hill",
		"category" : "Turkish,Fast food",
		"rating" : "3",
		"location" : {
			"latitude" : 50.914776,
			"longtitude" : 1.339061
		}
	},
	{
		"name" : "Charcoal Grill",
		"category" : "null",
		"rating" : "3",
		"location" : {
			"latitude" : 50.91449,
			"longtitude" : 1.36233
		}
	},
	{
		"name" : "Herbies Pizza",
		"category" : "Pizza,Italian",
		"rating" : "2.5",
		"location" : {
			"latitude" : 50.91496,
			"longtitude" : 1.361893
		}
	},
	{
		"name" : "KFC",
		"category" : "Fast food,American",
		"rating" : "2.5",
		"location" : {
			"latitude" : 50.903862,
			"longtitude" : 1.407474
		}
	},
	{
		"name" : "Royal Wok",
		"category" : "Asian,Chinese",
		"rating" : "3.5",
		"location" : {
			"latitude" : 50.900036,
			"longtitude" : 1.404085
		}
	},
	{
		"name" : "Chilli Tandoori",
		"category" : "Indian,Asian",
		"rating" : "3.5",
		"location" : {
			"latitude" : "null",
			"longtitude" : "null"
		}
	},
	{
		"name" : "Domino's Pizza",
		"category" : "Pizza",
		"rating" : "3.5",
		"location" : {
			"latitude" : 50.919136,
			"longtitude" : 1.404368
		}
	},
	{
		"name" : "fleming arms hungry horse",
		"category" : "British,Pub",
		"rating" : "3",
		"location" : {
			"latitude" : 50.94487,
			"longtitude" : 1.36928
		}
	},
	{
		"name" : "Dhaka Indian Cuisine",
		"category" : "Indian,Asian",
		"rating" : "2.5",
		"location" : {
			"latitude" : 50.91317,
			"longtitude" : 1.399578
		}
	},
	{
		"name" : "Costa Coffee",
		"category" : "Cafe,British",
		"rating" : "3",
		"location" : {
			"latitude" : "null",
			"longtitude" : "null"
		}
	},
	{
		"name" : "McDonald's Black Cat",
		"category" : "Fast food",
		"rating" : "3",
		"location" : {
			"latitude" : 50.937828,
			"longtitude" : 1.380476
		}
	},
	{
		"name" : "Bellemoor",
		"category" : "British,Pub",
		"rating" : "2.5",
		"location" : {
			"latitude" : 50.92738,
			"longtitude" : 1.41595
		}
	},
	{
		"name" : "Roberto's Pizza",
		"category" : "null",
		"rating" : "2.5",
		"location" : {
			"latitude" : 50.93021,
			"longtitude" : 1.45882
		}
	},
	{
		"name" : "Boardwalk Restaurant",
		"category" : "British",
		"rating" : "2.5",
		"location" : {
			"latitude" : 50.90504,
			"longtitude" : 1.415218
		}
	},
	{
		"name" : "Burrito Mexicana",
		"category" : "Mexican",
		"rating" : "2.5",
		"location" : {
			"latitude" : 50.9136,
			"longtitude" : 1.399199
		}
	},
	{
		"name" : "McDonald's",
		"category" : "Fast food",
		"rating" : "3",
		"location" : {
			"latitude" : 50.928635,
			"longtitude" : 1.3094
		}
	},
	{
		"name" : "Moja indian restaurant",
		"category" : "Indian,Asian",
		"rating" : "3",
		"location" : {
			"latitude" : 50.864937,
			"longtitude" : 1.290525
		}
	},
	{
		"name" : "Sanjha Food Court and Takeaway at AgeasBowl",
		"category" : "Indian",
		"rating" : "2.5",
		"location" : {
			"latitude" : 50.923702,
			"longtitude" : 1.323114
		}
	},
	{
		"name" : "Spice Tree",
		"category" : "null",
		"rating" : "2.5",
		"location" : {
			"latitude" : 50.915,
			"longtitude" : 1.424371
		}
	},
	{
		"name" : "Shamblehurst Barn",
		"category" : "British,Pub",
		"rating" : "3",
		"location" : {
			"latitude" : 50.93041,
			"longtitude" : 1.29685
		}
	},
	{
		"name" : "Subway",
		"category" : "null",
		"rating" : "2.5",
		"location" : {
			"latitude" : 50.913982,
			"longtitude" : 1.429694
		}
	},