[
	{
		"name" : "Max`s Bar and Brasserie",
		"category" : "Italian,Mediterranean,British,Seafood,European,Gluten Free Options",
		"review_count" : 351,
		"rating" : 5,
		"location" : {
			"latitude" : 50.89791,
			"longtitude" : -1.397692
		}
	},
	{
		"name" : "Enoteca",
		"category" : "Italian,Mediterranean,European,Vegetarian Friendly",
		"review_count" : 191,
		"rating" : 5,
		"location" : {
			"latitude" : 50.911446,
			"longtitude" : -1.405777
		}
	},
	{
		"name" : "Bacaro",
		"category" : "Italian,Mediterranean,European,Vegetarian Friendly,Gluten Free Options",
		"review_count" : 170,
		"rating" : 5,
		"location" : {
			"latitude" : 50.89728,
			"longtitude" : -1.391983
		}
	},
	{
		"name" : "Quay FIFTEEN",
		"category" : "European,British",
		"review_count" : 759,
		"rating" : 5,
		"location" : {
			"latitude" : 50.910034,
			"longtitude" : -1.381381
		}
	},
	{
		"name" : "Sulas Greek Taverna",
		"category" : "Mediterranean,Greek",
		"review_count" : 454,
		"rating" : 4.5,
		"location" : {
			"latitude" : 50.923756,
			"longtitude" : -1.394699
		}
	},
	{
		"name" : "Kohinoor of Kerala",
		"category" : "Indian,Asian,Vegetarian Friendly,Halal,Gluten Free Options",
		"review_count" : 1208,
		"rating" : 4.5,
		"location" : {
			"latitude" : 50.925354,
			"longtitude" : -1.393084
		}
	},
	{
		"name" : "Greg's Bistro",
		"category" : "Italian,French,Seafood,Mediterranean,European,British,Gluten Free Options",
		"review_count" : 284,
		"rating" : 4.5,
		"location" : {
			"latitude" : 50.908863,
			"longtitude" : -1.409378
		}
	},
	{
		"name" : "The Oxford Brasserie",
		"category" : "Italian,European,British,Gluten Free Options",
		"review_count" : 265,
		"rating" : 4.5,
		"location" : {
			"latitude" : 50.898064,
			"longtitude" : -1.397553
		}
	},
	{
		"name" : "Blue Island",
		"category" : "Mediterranean,Greek",
		"review_count" : 437,
		"rating" : 4.5,
		"location" : {
			"latitude" : 50.909077,
			"longtitude" : -1.404808
		}
	},
	{
		"name" : "Everest Cuisine",
		"category" : "Indian,Asian,Eastern European,Vegetarian Friendly,Vegan Options,Gluten Free Options",
		"review_count" : 516,
		"rating" : 4.5,
		"location" : {
			"latitude" : 50.89822,
			"longtitude" : -1.401716
		}
	},
	{
		"name" : "Lakaz Maman",
		"category" : "International,Fusion,Healthy,Street Food,Vegetarian Friendly,Gluten Free Options",
		"review_count" : 323,
		"rating" : 4.5,
		"location" : {
			"latitude" : 50.912064,
			"longtitude" : -1.406188
		}
	},
	{
		"name" : "Ceno",
		"category" : "European,British",
		"review_count" : 415,
		"rating" : 4.5,
		"location" : {
			"latitude" : 50.927414,
			"longtitude" : -1.391728
		}
	},
	{
		"name" : "It's A Pizza Thing",
		"category" : "Italian,Pizza,Fast food",
		"review_count" : 110,
		"rating" : 5,
		"location" : {
			"latitude" : 50.921898,
			"longtitude" : -1.387474
		}
	},
	{
		"name" : "Pho Vietnam",
		"category" : "Asian,Vietnamese,Gluten Free Options",
		"review_count" : 173,
		"rating" : 4.5,
		"location" : {
			"latitude" : 50.925423,
			"longtitude" : -1.393208
		}
	},
	{
		"name" : "La Tavernetta",
		"category" : "Italian,Pizza",
		"review_count" : 400,
		"rating" : 4.5,
		"location" : {
			"latitude" : 50.90678,
			"longtitude" : -1.405283
		}
	},
	{
		"name" : "The Rockstone",
		"category" : "American,British,Pub,Gluten Free Options",
		"review_count" : 904,
		"rating" : 4.5,
		"location" : {
			"latitude" : 50.91517,
			"longtitude" : -1.39764
		}
	},
	{
		"name" : "Grand Cafe",
		"category" : "British,Soups,International,Gluten Free Options",
		"review_count" : 672,
		"rating" : 4.5,
		"location" : {
			"latitude" : 50.89738,
			"longtitude" : -1.396815
		}
	},
	{
		"name" : "Brewery bar",
		"category" : "British,Pub,Gluten Free Options",
		"review_count" : 263,
		"rating" : 4.5,
		"location" : {
			"latitude" : 50.914738,
			"longtitude" : -1.2698
		}
	},
	{
		"name" : "Piccolo Mondo",
		"category" : "Italian,Pizza",
		"review_count" : 395,
		"rating" : 4.5,
		"location" : {
			"latitude" : 50.90653,
			"longtitude" : -1.405
		}
	},
	{
		"name" : "Casa Brasil",
		"category" : "Barbecue,South American,Gluten Free Options",
		"review_count" : 702,
		"rating" : 4,
		"location" : {
			"latitude" : 50.89788,
			"longtitude" : -1.398642
		}
	},
	{
		"name" : "Ennios",
		"category" : "Italian,Mediterranean,European,Gluten Free Options",
		"review_count" : 581,
		"rating" : 4.5,
		"location" : {
			"latitude" : 50.89637,
			"longtitude" : -1.40454
		}
	},
	{
		"name" : "Sadler's Brewhouse & BBQ",
		"category" : "Barbecue,American,Pub,Gluten Free Options",
		"review_count" : 199,
		"rating" : 4.5,
		"location" : {
			"latitude" : 50.912933,
			"longtitude" : -1.402711
		}
	},
	{
		"name" : "Coriander Lounge",
		"category" : "Indian,Asian,Halal",
		"review_count" : 1305,
		"rating" : 4.5,
		"location" : {
			"latitude" : 50.899654,
			"longtitude" : -1.403735
		}
	},
	{
		"name" : "Brewhouse & Kitchen \u2013 Southampton",
		"category" : "American,European,Pub,Gluten Free Options",
		"review_count" : 546,
		"rating" : 4,
		"location" : {
			"latitude" : 50.931046,
			"longtitude" : -1.3996
		}
	},
	{
		"name" : "The Railway Inn",
		"category" : "British,Pub,Gluten Free Options,Vegan Options",
		"review_count" : 219,
		"rating" : 4.5,
		"location" : {
			"latitude" : 50.915794,
			"longtitude" : -1.258725
		}
	},
	{
		"name" : "La Regata Restaurant",
		"category" : "Mediterranean,European,Spanish,Gluten Free Options",
		"review_count" : 378,
		"rating" : 4.5,
		"location" : {
			"latitude" : 50.896667,
			"longtitude" : -1.404666
		}
	},
	{
		"name" : "Duke of Wellington",
		"category" : "British,Pub",
		"review_count" : 320,
		"rating" : 4.5,
		"location" : {
			"latitude" : 50.898724,
			"longtitude" : -1.405915
		}
	},
	{
		"name" : "The Olive Tree",
		"category" : "French,Mediterranean,European,British,Gluten Free Options",
		"review_count" : 527,
		"rating" : 4.5,
		"location" : {
			"latitude" : 50.898136,
			"longtitude" : -1.397891
		}
	},
	{
		"name" : "The Dancing Man Brewery",
		"category" : "British,Pub,Gluten Free Options",
		"review_count" : 406,
		"rating" : 4,
		"location" : {
			"latitude" : 50.89736,
			"longtitude" : -1.406051
		}
	},
	{
		"name" : "Turtle Bay",
		"category" : "Caribbean,Jamaican,Gluten Free Options",
		"review_count" : 1642,
		"rating" : 4,
		"location" : {
			"latitude" : 50.908,
			"longtitude" : -1.404972
		}
	},
	{
		"name" : "Samuel's Rest Pub",
		"category" : "British,Pub,Gluten Free Options",
		"review_count" : 210,
		"rating" : 4.5,
		"location" : {
			"latitude" : 50.916695,
			"longtitude" : -1.199064
		}
	},
	{
		"name" : "Tapas Barcelona",
		"category" : "Mediterranean,European,Spanish,Gluten Free Options",
		"review_count" : 319,
		"rating" : 4,
		"location" : {
			"latitude" : 50.908207,
			"longtitude" : -1.404589
		}
	},
	{
		"name" : "7Bone Burger Co.",
		"category" : "American,Fast food",
		"review_count" : 924,
		"rating" : 4,
		"location" : {
			"latitude" : 50.92345,
			"longtitude" : -1.394941
		}
	},
	{
		"name" : "Cove",
		"category" : "Seafood,European,British,French,Mediterranean,Eastern European",
		"review_count" : 59,
		"rating" : 5,
		"location" : {
			"latitude" : 50.910065,
			"longtitude" : -1.380245
		}
	},
	{
		"name" : "Ovation, Mayflower Restaurant",
		"category" : "European,British,Soups,International,Fusion,Gluten Free Options",
		"review_count" : 349,
		"rating" : 4.5,
		"location" : {
			"latitude" : 50.908806,
			"longtitude" : -1.410221
		}
	},
	{
		"name" : "Kuti's Royal Thai Pier",
		"category" : "Asian,Thai",
		"review_count" : 674,
		"rating" : 4,
		"location" : {
			"latitude" : 50.896652,
			"longtitude" : -1.407149
		}
	},
	{
		"name" : "Mango Thai Tapas, Portswood",
		"category" : "Asian,Thai,Gluten Free Options",
		"review_count" : 493,
		"rating" : 4.5,
		"location" : {
			"latitude" : 50.920666,
			"longtitude" : -1.3955
		}
	},
	{
		"name" : "Benzo Bar and Kitchen",
		"category" : "International,European,British,Pub",
		"review_count" : 64,
		"rating" : 5,
		"location" : {
			"latitude" : 50.9128,
			"longtitude" : -1.40501
		}
	},
	{
		"name" : "The Ferry Restaurant",
		"category" : "British",
		"review_count" : 216,
		"rating" : 4.5,
		"location" : {
			"latitude" : 50.88281,
			"longtitude" : -1.304594
		}
	},
	{
		"name" : "Puccinis",
		"category" : "Italian,Pizza",
		"review_count" : 262,
		"rating" : 4.5,
		"location" : {
			"latitude" : 50.917797,
			"longtitude" : -1.427372
		}
	},
	{
		"name" : "Jewels",
		"category" : "Indian,Asian,Eastern European",
		"review_count" : 420,
		"rating" : 4.5,
		"location" : {
			"latitude" : 50.932987,
			"longtitude" : -1.352333
		}
	},
	{
		"name" : "dock o' the bay",
		"category" : "British,European",
		"review_count" : 481,
		"rating" : 4.5,
		"location" : {
			"latitude" : 50.91892,
			"longtitude" : -1.404179
		}
	},
	{
		"name" : "Basmati Nepalese and Indian restaurant",
		"category" : "Indian,Asian,Vegetarian Friendly,Gluten Free Options",
		"review_count" : 164,
		"rating" : 5,
		"location" : {
			"latitude" : 50.911446,
			"longtitude" : -1.405975
		}
	},
	{
		"name" : "Steak of the Art",
		"category" : "Steakhouse,British",
		"review_count" : 216,
		"rating" : 4,
		"location" : {
			"latitude" : 50.89644,
			"longtitude" : -1.392082
		}
	},
	{
		"name" : "Mike's Fish & Chips Restaurant",
		"category" : "Fast food,British,Seafood",
		"review_count" : 92,
		"rating" : 5,
		"location" : {
			"latitude" : 50.900414,
			"longtitude" : -1.401161
		}
	},
	{
		"name" : "La Baronia",
		"category" : "Mexican,Gluten Free Options",
		"review_count" : 470,
		"rating" : 4.5,
		"location" : {
			"latitude" : 50.920666,
			"longtitude" : -1.395333
		}
	},
	{
		"name" : "Taj Mahal Restaurant Southampton",
		"category" : "Indian,Vegetarian Friendly,Halal,Gluten Free Options",
		"review_count" : 133,
		"rating" : 4.5,
		"location" : {
			"latitude" : 50.908913,
			"longtitude" : -1.409584
		}
	},
	{
		"name" : "CXO Bar & Bistro",
		"category" : "Italian,Cafe,British,International,European",
		"review_count" : 160,
		"rating" : 4.5,
		"location" : {
			"latitude" : 50.90848,
			"longtitude" : -1.413466
		}
	},
	{
		"name" : "KALI MIRCHI",
		"category" : "Indian,Asian,Eastern European,Gluten Free Options",
		"review_count" : 493,
		"rating" : 4.5,
		"location" : {
			"latitude" : 50.923214,
			"longtitude" : -1.434614
		}
	},
	{
		"name" : "La lupa",
		"category" : "Italian,Pizza,Gluten Free Options",
		"review_count" : 346,
		"rating" : 4,
		"location" : {
			"latitude" : 50.89935,
			"longtitude" : -1.403675
		}
	},
	{
		"name" : "Fusion Noodle Bar",
		"category" : "Chinese,Asian,Malaysian",
		"review_count" : 176,
		"rating" : 4.5,
		"location" : {
			"latitude" : 50.90217,
			"longtitude" : -1.396667
		}
	},
	{
		"name" : "Milan Italian Restaurant",
		"category" : "Italian,Pizza",
		"review_count" : 204,
		"rating" : 4.5,
		"location" : {
			"latitude" : 50.911785,
			"longtitude" : -1.404741
		}
	},
	{
		"name" : "The Vestry Restaurant & Bar",
		"category" : "European,British,International,Gluten Free Options",
		"review_count" : 626,
		"rating" : 4,
		"location" : {
			"latitude" : 50.908997,
			"longtitude" : -1.410925
		}
	},
	{
		"name" : "The Stable",
		"category" : "Italian,Pizza,British,Gluten Free Options",
		"review_count" : 142,
		"rating" : 4,
		"location" : {
			"latitude" : 50.907547,
			"longtitude" : -1.404567
		}
	},
	{
		"name" : "Kuti's Brasserie",
		"category" : "Indian",
		"review_count" : 379,
		"rating" : 4,
		"location" : {
			"latitude" : 50.89796,
			"longtitude" : -1.397922
		}
	},
	{
		"name" : "Wagamama West Quay Centre",
		"category" : "Japanese",
		"review_count" : 247,
		"rating" : 4,
		"location" : {
			"latitude" : 50.904408,
			"longtitude" : -1.405594
		}
	},
	{
		"name" : "Uni Kebab",
		"category" : "Fast food,Mediterranean,European,Turkish,Middle Eastern,Halal",
		"review_count" : 131,
		"rating" : 4.5,
		"location" : {
			"latitude" : 50.938282,
			"longtitude" : -1.392465
		}
	},
	{
		"name" : "Mango Thai Tapas Bar & Restaurant",
		"category" : "Asian,Thai,Gluten Free Options",
		"review_count" : 253,
		"rating" : 4,
		"location" : {
			"latitude" : 50.908833,
			"longtitude" : -1.404667
		}
	},
	{
		"name" : "The Art House",
		"category" : "Cafe,British,Vegetarian Friendly,Vegan Options,Gluten Free Options",
		"review_count" : 199,
		"rating" : 4.5,
		"location" : {
			"latitude" : 50.90867,
			"longtitude" : -1.404503
		}
	},
	{
		"name" : "Chalk Valley Farm & Kitchen",
		"category" : "Steakhouse,Fast food,British,Vegetarian Friendly,Gluten Free Options",
		"review_count" : 254,
		"rating" : 4.5,
		"location" : {
			"latitude" : 50.911655,
			"longtitude" : -1.404111
		}
	},
	{
		"name" : "Diego's",
		"category" : "Mediterranean,Portuguese",
		"review_count" : 187,
		"rating" : 4.5,
		"location" : {
			"latitude" : 50.911636,
			"longtitude" : -1.4059
		}
	},
	{
		"name" : "George's Restaurant",
		"category" : "Mediterranean,Greek",
		"review_count" : 190,
		"rating" : 4.5,
		"location" : {
			"latitude" : 50.89936,
			"longtitude" : -1.40573
		}
	},
	{
		"name" : "The Lovely Little Cafe",
		"category" : "Cafe,British",
		"review_count" : 120,
		"rating" : 4.5,
		"location" : {
			"latitude" : null,
			"longtitude" : null
		}
	},
	{
		"name" : "Yuri Cottage",
		"category" : "Japanese,Sushi,Asian",
		"review_count" : 45,
		"rating" : 5,
		"location" : {
			"latitude" : null,
			"longtitude" : null
		}
	},
	{
		"name" : "Bella Italia Southampton Hanover",
		"category" : "Italian,Pizza,Mediterranean,Gluten Free Options",
		"review_count" : 277,
		"rating" : 4,
		"location" : {
			"latitude" : 50.90284,
			"longtitude" : -1.402221
		}
	},
	{
		"name" : "The Empress of Blandings",
		"category" : "British,Pub,Gluten Free Options",
		"review_count" : 474,
		"rating" : 4,
		"location" : {
			"latitude" : 50.930515,
			"longtitude" : -1.55932
		}
	},
	{
		"name" : "Elias Restaurant",
		"category" : "Mediterranean,Greek",
		"review_count" : 158,
		"rating" : 4.5,
		"location" : {
			"latitude" : 50.901436,
			"longtitude" : -1.401562
		}
	},
	{
		"name" : "Leelawadee Thai Restaurant & Tapas",
		"category" : "Asian,Thai",
		"review_count" : 278,
		"rating" : 4.5,
		"location" : {
			"latitude" : 50.908913,
			"longtitude" : -1.409584
		}
	},
	{
		"name" : "Regginas Ristorante Italiano",
		"category" : "Italian,Pizza,Gluten Free Options",
		"review_count" : 478,
		"rating" : 4,
		"location" : {
			"latitude" : 50.91437,
			"longtitude" : -1.270924
		}
	},
	{
		"name" : "The Elm Tree",
		"category" : "British,Pub",
		"review_count" : 207,
		"rating" : 4,
		"location" : {
			"latitude" : 50.88313,
			"longtitude" : -1.27937
		}
	},
	{
		"name" : "Banana Wharf",
		"category" : "Italian,Seafood,British,Gluten Free Options",
		"review_count" : 487,
		"rating" : 4,
		"location" : {
			"latitude" : 50.896633,
			"longtitude" : -1.390872
		}
	},
	{
		"name" : "Black Dog",
		"category" : "British,Pub,International,Gluten Free Options",
		"review_count" : 197,
		"rating" : 4,
		"location" : {
			"latitude" : 50.9166,
			"longtitude" : -1.20021
		}
	},
	{
		"name" : "The Ship Inn",
		"category" : "British,Pub,Gluten Free Options",
		"review_count" : 250,
		"rating" : 4,
		"location" : {
			"latitude" : 50.92111,
			"longtitude" : -1.472412
		}
	},
	{
		"name" : "Bitterne Balti",
		"category" : "Indian,Asian,Halal",
		"review_count" : 190,
		"rating" : 4.5,
		"location" : {
			"latitude" : 50.92445,
			"longtitude" : -1.375704
		}
	},
	{
		"name" : "Platform Tavern",
		"category" : "British,Pub",
		"review_count" : 191,
		"rating" : 4,
		"location" : {
			"latitude" : 50.89613,
			"longtitude" : -1.40254
		}
	},
	{
		"name" : "The Brushmakers Arms",
		"category" : "British,Pub,International",
		"review_count" : 123,
		"rating" : 4.5,
		"location" : {
			"latitude" : null,
			"longtitude" : null
		}
	},
	{
		"name" : "Kachina",
		"category" : "Chinese,Asian",
		"review_count" : 247,
		"rating" : 4,
		"location" : {
			"latitude" : 50.919884,
			"longtitude" : -1.430693
		}
	},
	{
		"name" : "IKEA Restaurant - Southampton",
		"category" : "Fast food,European",
		"review_count" : 152,
		"rating" : 4,
		"location" : {
			"latitude" : 50.90376,
			"longtitude" : -1.41271
		}
	},
	{
		"name" : "The Standing Order",
		"category" : "British,Pub",
		"review_count" : 341,
		"rating" : 3.5,
		"location" : {
			"latitude" : 50.90049,
			"longtitude" : -1.403769
		}
	},
	{
		"name" : "Santo Lounge",
		"category" : "Cafe,Vegan Options,Gluten Free Options",
		"review_count" : 261,
		"rating" : 4,
		"location" : {
			"latitude" : 50.92072,
			"longtitude" : -1.430845
		}
	},
	{
		"name" : "Nick's Restaurant",
		"category" : "European,British,Greek",
		"review_count" : 110,
		"rating" : 4.5,
		"location" : {
			"latitude" : 50.901775,
			"longtitude" : -1.399568
		}
	},
	{
		"name" : "The Red Lion Pub",
		"category" : "British,Pub",
		"review_count" : 205,
		"rating" : 4,
		"location" : {
			"latitude" : 50.89906,
			"longtitude" : -1.403474
		}
	},
	{
		"name" : "Gatehouse Grill at Kuti's Royal Pier",
		"category" : "Steakhouse",
		"review_count" : 220,
		"rating" : 4,
		"location" : {
			"latitude" : 50.896572,
			"longtitude" : -1.407144
		}
	},
	{
		"name" : "Tandoori",
		"category" : "Indian,Asian,Eastern European",
		"review_count" : 77,
		"rating" : 4.5,
		"location" : {
			"latitude" : 50.897034,
			"longtitude" : -1.371182
		}
	},
	{
		"name" : "The Navigator",
		"category" : "British,Pub",
		"review_count" : 227,
		"rating" : 4,
		"location" : {
			"latitude" : 50.883686,
			"longtitude" : -1.299422
		}
	},
	{
		"name" : "Roll Call",
		"category" : "Pub,Indian,Vegetarian Friendly",
		"review_count" : 31,
		"rating" : 4.5,
		"location" : {
			"latitude" : 50.88134,
			"longtitude" : -1.339915
		}
	},
	{
		"name" : "Bistro 8",
		"category" : "Pizza,European,British",
		"review_count" : 254,
		"rating" : 4,
		"location" : {
			"latitude" : 50.874477,
			"longtitude" : -1.303616
		}
	},
	{
		"name" : "Cricketers Inn",
		"category" : "British,Pub,Gluten Free Options",
		"review_count" : 218,
		"rating" : 4,
		"location" : {
			"latitude" : 50.92781,
			"longtitude" : -1.233586
		}
	},
	{
		"name" : "Simons at Oxfords Bar & Restaurant",
		"category" : "European,British",
		"review_count" : 390,
		"rating" : 4,
		"location" : {
			"latitude" : 50.898052,
			"longtitude" : -1.397355
		}
	},
	{
		"name" : "Spice Cottage",
		"category" : "Indian,Asian,Vegetarian Friendly",
		"review_count" : 30,
		"rating" : 4.5,
		"location" : {
			"latitude" : 50.89828,
			"longtitude" : -1.399122
		}
	},
	{
		"name" : "The Food Factory",
		"category" : "Chinese,Indian,Asian,International,Gluten Free Options",
		"review_count" : 474,
		"rating" : 3.5,
		"location" : {
			"latitude" : 50.901436,
			"longtitude" : -1.403896
		}
	},
	{
		"name" : "The Real Greek",
		"category" : "Mediterranean,Greek,Vegetarian Friendly",
		"review_count" : 24,
		"rating" : 4.5,
		"location" : {
			"latitude" : 50.901955,
			"longtitude" : -1.410242
		}
	},
	{
		"name" : "Sakura",
		"category" : "Japanese,Sushi,Asian",
		"review_count" : 21,
		"rating" : 5,
		"location" : {
			"latitude" : 50.91204,
			"longtitude" : -1.406034
		}
	},
	{
		"name" : "Miss Ellie's Cafe",
		"category" : "British,Cafe",
		"review_count" : 45,
		"rating" : 5,
		"location" : {
			"latitude" : 50.92507,
			"longtitude" : -1.375774
		}
	},
	{
		"name" : "The Gordon Arms",
		"category" : "Indian,Pub",
		"review_count" : 143,
		"rating" : 4.5,
		"location" : {
			"latitude" : 50.923405,
			"longtitude" : -1.395059
		}
	},
	{
		"name" : "Cafe Valentines",
		"category" : "Cafe,British",
		"review_count" : 68,
		"rating" : 4.5,
		"location" : {
			"latitude" : 50.89799,
			"longtitude" : -1.397971
		}
	},
	{
		"name" : "The Farmers Home",
		"category" : "British,Pub,Gluten Free Options",
		"review_count" : 258,
		"rating" : 4,
		"location" : {
			"latitude" : 50.941185,
			"longtitude" : -1.267317
		}
	},
	{
		"name" : "The Artisan",
		"category" : "Cafe,British,Soups,Vegetarian Friendly",
		"review_count" : 64,
		"rating" : 4.5,
		"location" : {
			"latitude" : 50.90817,
			"longtitude" : -1.405098
		}
	},
	{
		"name" : "Stakks Pancake House",
		"category" : "American,Vegetarian Friendly,Gluten Free Options",
		"review_count" : 54,
		"rating" : 4.5,
		"location" : {
			"latitude" : 50.905697,
			"longtitude" : -1.405542
		}
	},
	{
		"name" : "Shrimp and Burger",
		"category" : "American",
		"review_count" : 218,
		"rating" : 4,
		"location" : {
			"latitude" : 50.912777,
			"longtitude" : -1.406122
		}
	},
	{
		"name" : "Amber Deli & Bistro",
		"category" : "Italian,American,British,Healthy,European",
		"review_count" : 61,
		"rating" : 4.5,
		"location" : {
			"latitude" : 50.911057,
			"longtitude" : -1.405677
		}
	},
	{
		"name" : "Beefy\u2019s Restaurant at Hilton Ageas Bowl",
		"category" : "British",
		"review_count" : 111,
		"rating" : 4,
		"location" : {
			"latitude" : 50.97283,
			"longtitude" : -1.43133
		}
	},
	{
		"name" : "The Pig in the Wall",
		"category" : "British,Delicatessen,Vegetarian Friendly,Gluten Free Options",
		"review_count" : 160,
		"rating" : 4,
		"location" : {
			"latitude" : 50.899048,
			"longtitude" : -1.407252
		}
	},
	{
		"name" : "Sanjha Punjabi Restaurant & Caterings",
		"category" : "Indian,Asian",
		"review_count" : 266,
		"rating" : 4,
		"location" : {
			"latitude" : 50.916866,
			"longtitude" : -1.426443
		}
	},
	{
		"name" : "The Orange Rooms",
		"category" : "British,Street Food",
		"review_count" : 115,
		"rating" : 4.5,
		"location" : {
			"latitude" : 50.91237,
			"longtitude" : -1.4049
		}
	},
	{
		"name" : "BAYLEAF kitchen",
		"category" : "Indian,Vegetarian Friendly",
		"review_count" : 35,
		"rating" : 5,
		"location" : {
			"latitude" : 50.927444,
			"longtitude" : -1.335713
		}
	},
	{
		"name" : "Aspire Restaurant",
		"category" : "British,European,Gluten Free Options",
		"review_count" : 69,
		"rating" : 4.5,
		"location" : {
			"latitude" : 50.90323,
			"longtitude" : -1.394083
		}
	},
	{
		"name" : "Mettricks Guildhall Place",
		"category" : "Cafe,British,Healthy,Vegetarian Friendly",
		"review_count" : 43,
		"rating" : 4.5,
		"location" : {
			"latitude" : 50.90805,
			"longtitude" : -1.403952
		}
	},
	{
		"name" : "The Dolphin Pub",
		"category" : "British,Pub",
		"review_count" : 62,
		"rating" : 4.5,
		"location" : {
			"latitude" : 50.922363,
			"longtitude" : -1.388666
		}
	},
	{
		"name" : "Lemoni Grill House Southampton",
		"category" : "Mediterranean,Greek,Healthy",
		"review_count" : 106,
		"rating" : 4,
		"location" : {
			"latitude" : 50.901657,
			"longtitude" : -1.401078
		}
	},
	{
		"name" : "Three Choirs Wickham",
		"category" : "British",
		"review_count" : 97,
		"rating" : 4.5,
		"location" : {
			"latitude" : 50.924767,
			"longtitude" : -1.244694
		}
	},
	{
		"name" : "Momento",
		"category" : "Italian,Gluten Free Options",
		"review_count" : 119,
		"rating" : 4,
		"location" : {
			"latitude" : 50.907715,
			"longtitude" : -1.405214
		}
	},
	{
		"name" : "Baan Mai Thai Restaurant",
		"category" : "Asian,Thai",
		"review_count" : 67,
		"rating" : 4.5,
		"location" : {
			"latitude" : 50.927128,
			"longtitude" : -1.390578
		}
	},
	{
		"name" : "Samba Bar and Grill",
		"category" : "South American,Barbecue",
		"review_count" : 112,
		"rating" : 4,
		"location" : {
			"latitude" : 50.90197,
			"longtitude" : -1.404011
		}
	},
	{
		"name" : "The Bold Forester",
		"category" : "British,Pub",
		"review_count" : 265,
		"rating" : 3.5,
		"location" : {
			"latitude" : 50.875786,
			"longtitude" : -1.282559
		}
	},
	{
		"name" : "Casanova",
		"category" : "Italian,Pizza,Mediterranean",
		"review_count" : 111,
		"rating" : 4.5,
		"location" : {
			"latitude" : 50.9025,
			"longtitude" : -1.40097
		}
	},
	{
		"name" : "Piggys Coffee Shop and Restaurant",
		"category" : "Cafe,British,Gluten Free Options",
		"review_count" : 77,
		"rating" : 4.5,
		"location" : {
			"latitude" : 50.897247,
			"longtitude" : -1.379832
		}
	},
	{
		"name" : "Jehangir",
		"category" : "Indian,Asian,Eastern European",
		"review_count" : 219,
		"rating" : 4,
		"location" : {
			"latitude" : 50.93438,
			"longtitude" : -1.418679
		}
	},
	{
		"name" : "Nara Japanese Restaurant",
		"category" : "Japanese,Sushi,Asian",
		"review_count" : 59,
		"rating" : 4.5,
		"location" : {
			"latitude" : 50.911926,
			"longtitude" : -1.406207
		}
	},
	{
		"name" : "The Bugle Inn",
		"category" : "British",
		"review_count" : 85,
		"rating" : 4,
		"location" : {
			"latitude" : 50.914425,
			"longtitude" : -1.270252
		}
	},
	{
		"name" : "Gusto Lounge",
		"category" : "Mediterranean,Italian,European,Pizza",
		"review_count" : 309,
		"rating" : 4,
		"location" : {
			"latitude" : 50.909023,
			"longtitude" : -1.408917
		}
	},
	{
		"name" : "The Jolly Sailor",
		"category" : "British,Pub,Gluten Free Options",
		"review_count" : 596,
		"rating" : 3.5,
		"location" : {
			"latitude" : 50.881298,
			"longtitude" : -1.303959
		}
	},
	{
		"name" : "The Stage Door Southampton",
		"category" : "British,Gluten Free Options",
		"review_count" : 49,
		"rating" : 4.5,
		"location" : {
			"latitude" : 50.90718,
			"longtitude" : -1.405499
		}
	},
	{
		"name" : "Namaste Indus",
		"category" : "Indian,Asian,Vegetarian Friendly,Vegan Options",
		"review_count" : 49,
		"rating" : 4.5,
		"location" : {
			"latitude" : 50.906857,
			"longtitude" : -1.405293
		}
	},
	{
		"name" : "Indian Melody",
		"category" : "Indian,Asian,Vegetarian Friendly,Vegan Options,Gluten Free Options",
		"review_count" : 685,
		"rating" : 4.5,
		"location" : {
			"latitude" : 50.900883,
			"longtitude" : -1.403727
		}
	},
	{
		"name" : "Jolly Sailor",
		"category" : "British,Pub",
		"review_count" : 58,
		"rating" : 4.5,
		"location" : {
			"latitude" : 50.82699,
			"longtitude" : -1.34752
		}
	},
	{
		"name" : "Mango Thai Tapas, Ocean Village",
		"category" : "Asian,Thai",
		"review_count" : 59,
		"rating" : 4.5,
		"location" : {
			"latitude" : 50.896996,
			"longtitude" : -1.394394
		}
	},
	{
		"name" : "Revolution Bar",
		"category" : "American,British",
		"review_count" : 99,
		"rating" : 4,
		"location" : {
			"latitude" : 50.91258,
			"longtitude" : -1.406177
		}
	},
	{
		"name" : "Purbani Netley",
		"category" : "Indian,Asian,Eastern European,Halal",
		"review_count" : 69,
		"rating" : 4.5,
		"location" : {
			"latitude" : 50.875736,
			"longtitude" : -1.35569
		}
	},
	{
		"name" : "Benny's BurgerTown",
		"category" : "American,Fast food,British",
		"review_count" : 41,
		"rating" : 4.5,
		"location" : {
			"latitude" : 50.907288,
			"longtitude" : -1.396872
		}
	},
	{
		"name" : "The Horse & Jockey",
		"category" : "British,Pub,Gluten Free Options",
		"review_count" : 233,
		"rating" : 4,
		"location" : {
			"latitude" : 50.937073,
			"longtitude" : -1.337599
		}
	},
	{
		"name" : "King's Country Bar & Restaurant",
		"category" : "British,Gluten Free Options",
		"review_count" : 195,
		"rating" : 4,
		"location" : {
			"latitude" : 50.91348,
			"longtitude" : -1.26118
		}
	},
	{
		"name" : "Lins Chip Shop",
		"category" : "Fast food",
		"review_count" : 24,
		"rating" : 5,
		"location" : {
			"latitude" : 50.91661,
			"longtitude" : -1.4258
		}
	},
	{
		"name" : "Woodlands Lodge Hotel",
		"category" : "British,Gluten Free Options",
		"review_count" : 57,
		"rating" : 4.5,
		"location" : {
			"latitude" : 50.901745,
			"longtitude" : -1.554208
		}
	},
	{
		"name" : "Buffalo Bills",
		"category" : "American",
		"review_count" : 325,
		"rating" : 4,
		"location" : {
			"latitude" : 50.908985,
			"longtitude" : -1.409148
		}
	},
	{
		"name" : "Pret A Manger",
		"category" : "Cafe,British,Fast food,Vegetarian Friendly,Gluten Free Options",
		"review_count" : 38,
		"rating" : 4.5,
		"location" : {
			"latitude" : 50.90435,
			"longtitude" : -1.411376
		}
	},
	{
		"name" : "Melo Restaurant",
		"category" : "Middle Eastern,Persian,Halal",
		"review_count" : 71,
		"rating" : 4.5,
		"location" : {
			"latitude" : 50.938515,
			"longtitude" : -1.380177
		}
	},
	{
		"name" : "Banks Bar Bistro",
		"category" : "British",
		"review_count" : 102,
		"rating" : 4,
		"location" : {
			"latitude" : 50.95456,
			"longtitude" : -1.21063
		}
	},
	{
		"name" : "Fortune Chinese Restaurant",
		"category" : "Chinese,Asian,Vegetarian Friendly",
		"review_count" : 170,
		"rating" : 4,
		"location" : {
			"latitude" : 50.899258,
			"longtitude" : -1.399873
		}
	},
	{
		"name" : "Shanghai Bay",
		"category" : "Chinese,Asian",
		"review_count" : 40,
		"rating" : 4.5,
		"location" : {
			"latitude" : 50.903233,
			"longtitude" : -1.404475
		}
	},
	{
		"name" : "Yummy Thai Noodle Bar",
		"category" : "Asian,Thai",
		"review_count" : 27,
		"rating" : 4.5,
		"location" : {
			"latitude" : 50.90506,
			"longtitude" : -1.403645
		}
	},
	{
		"name" : "Cafe Rumi's",
		"category" : "null",
		"review_count" : 11,
		"rating" : 5,
		"location" : {
			"latitude" : 50.911156,
			"longtitude" : -1.405702
		}
	},
	{
		"name" : "The Lime Bar",
		"category" : "Chinese",
		"review_count" : 31,
		"rating" : 4.5,
		"location" : {
			"latitude" : 50.86498,
			"longtitude" : -1.261477
		}
	},
	{
		"name" : "Rancho",
		"category" : "Steakhouse,British,Argentinian,South American",
		"review_count" : 479,
		"rating" : 3.5,
		"location" : {
			"latitude" : 50.899334,
			"longtitude" : -1.403667
		}
	},
	{
		"name" : "Basmati Indian Restaurant Southampton",
		"category" : "Indian,Asian,Eastern European",
		"review_count" : 154,
		"rating" : 4,
		"location" : {
			"latitude" : 50.86332,
			"longtitude" : -1.275707
		}
	},
	{
		"name" : "Poppins portswood",
		"category" : "Cafe,British",
		"review_count" : 30,
		"rating" : 4.5,
		"location" : {
			"latitude" : 50.926243,
			"longtitude" : -1.392377
		}
	},
	{
		"name" : "Nicole's Restaurant",
		"category" : "Indian",
		"review_count" : 11,
		"rating" : 5,
		"location" : {
			"latitude" : 50.91725,
			"longtitude" : -1.426607
		}
	},
	{
		"name" : "Walnut Tree Farm",
		"category" : "British,Pub,Vegetarian Friendly",
		"review_count" : 201,
		"rating" : 3.5,
		"location" : {
			"latitude" : 50.93687,
			"longtitude" : -1.469815
		}
	},
	{
		"name" : "The King & Queen Pub",
		"category" : "British,Pub",
		"review_count" : 129,
		"rating" : 4,
		"location" : {
			"latitude" : 50.85859,
			"longtitude" : -1.313631
		}
	},
	{
		"name" : "CAU Restaurant",
		"category" : "Steakhouse",
		"review_count" : 19,
		"rating" : 4.5,
		"location" : {
			"latitude" : 50.90594,
			"longtitude" : -1.405404
		}
	},
	{
		"name" : "The White Star Tavern",
		"category" : "British,Pub,Gluten Free Options",
		"review_count" : 358,
		"rating" : 3.5,
		"location" : {
			"latitude" : 50.898323,
			"longtitude" : -1.398126
		}
	},
	{
		"name" : "Fuchi",
		"category" : "Chinese,Asian,Gluten Free Options",
		"review_count" : 116,
		"rating" : 4,
		"location" : {
			"latitude" : 50.91531,
			"longtitude" : -1.48661
		}
	},
	{
		"name" : "Crown Inn Pub",
		"category" : "British,Pub,Vegetarian Friendly",
		"review_count" : 96,
		"rating" : 4,
		"location" : {
			"latitude" : 50.932182,
			"longtitude" : -1.400314
		}
	},
	{
		"name" : "Stein Garten",
		"category" : "German,European,Pub",
		"review_count" : 97,
		"rating" : 4,
		"location" : {
			"latitude" : 50.89914,
			"longtitude" : -1.403794
		}
	},
	{
		"name" : "Sidewalk South",
		"category" : "Cafe,British",
		"review_count" : 38,
		"rating" : 4.5,
		"location" : {
			"latitude" : 50.90087,
			"longtitude" : -1.403981
		}
	},
	{
		"name" : "The Talisman pub restaurant",
		"category" : "British,Pub,Gluten Free Options",
		"review_count" : 264,
		"rating" : 3.5,
		"location" : {
			"latitude" : 50.870804,
			"longtitude" : -1.26543
		}
	},
	{
		"name" : "Holbury Fish Bar",
		"category" : "Fast food,British,Seafood",
		"review_count" : 33,
		"rating" : 4.5,
		"location" : {
			"latitude" : 50.832718,
			"longtitude" : -1.381944
		}
	},
	{
		"name" : "Good Pho You",
		"category" : "Asian,Vietnamese,Vegetarian Friendly",
		"review_count" : 13,
		"rating" : 5,
		"location" : {
			"latitude" : 50.917297,
			"longtitude" : -1.427176
		}
	},
	{
		"name" : "Zen Japanese & Oriental Restaurant",
		"category" : "Japanese,Sushi,Asian,Gluten Free Options",
		"review_count" : 314,
		"rating" : 3.5,
		"location" : {
			"latitude" : 50.899506,
			"longtitude" : -1.403617
		}
	},
	{
		"name" : "Annies",
		"category" : "British,Cafe",
		"review_count" : 34,
		"rating" : 4,
		"location" : {
			"latitude" : 50.89795,
			"longtitude" : -1.379743
		}
	},
	{
		"name" : "Pitcher & Piano - Southampton",
		"category" : "British,Gluten Free Options",
		"review_count" : 345,
		"rating" : 3.5,
		"location" : {
			"latitude" : 50.89747,
			"longtitude" : -1.390052
		}
	},
	{
		"name" : "The Forest Home",
		"category" : "British,Pub",
		"review_count" : 171,
		"rating" : 4,
		"location" : {
			"latitude" : 50.841434,
			"longtitude" : -1.391916
		}
	},
	{
		"name" : "Bella Italia Southampton Above Bar",
		"category" : "Italian,Pizza,Gluten Free Options",
		"review_count" : 272,
		"rating" : 4,
		"location" : {
			"latitude" : 50.906254,
			"longtitude" : -1.404706
		}
	},
	{
		"name" : "Carluccio's",
		"category" : "Italian,European",
		"review_count" : 34,
		"rating" : 4,
		"location" : {
			"latitude" : 50.90366,
			"longtitude" : -1.407219
		}
	},
	{
		"name" : "The London Hotel",
		"category" : "British,Pub",
		"review_count" : 52,
		"rating" : 4,
		"location" : {
			"latitude" : 50.89819,
			"longtitude" : -1.3987
		}
	},
	{
		"name" : "Kohinoor",
		"category" : "Indian,Asian",
		"review_count" : 52,
		"rating" : 4.5,
		"location" : {
			"latitude" : 50.92761,
			"longtitude" : -1.388234
		}
	},
	{
		"name" : "Tang's Chinese Restaurant",
		"category" : "Chinese,Asian",
		"review_count" : 158,
		"rating" : 4,
		"location" : {
			"latitude" : 50.907143,
			"longtitude" : -1.404689
		}
	},
	{
		"name" : "Handmade Burger Company",
		"category" : "American,British,Gluten Free Options",
		"review_count" : 224,
		"rating" : 3.5,
		"location" : {
			"latitude" : 50.9034,
			"longtitude" : -1.407505
		}
	},
	{
		"name" : "Chimichanga",
		"category" : "Mexican,Gluten Free Options",
		"review_count" : 140,
		"rating" : 3.5,
		"location" : {
			"latitude" : 50.89789,
			"longtitude" : -1.39796
		}
	},
	{
		"name" : "La Vita Cafe",
		"category" : "Italian,Cafe",
		"review_count" : 57,
		"rating" : 4,
		"location" : {
			"latitude" : 50.900997,
			"longtitude" : -1.404274
		}
	},
	{
		"name" : "Balmoral Beefeater",
		"category" : "Steakhouse,British,Pub,Gluten Free Options,Vegetarian Friendly",
		"review_count" : 320,
		"rating" : 3.5,
		"location" : {
			"latitude" : 50.945007,
			"longtitude" : -1.461829
		}
	},
	{
		"name" : "Supreme Asia Cuisine",
		"category" : "Chinese,Asian",
		"review_count" : 130,
		"rating" : 4,
		"location" : {
			"latitude" : 50.89994,
			"longtitude" : -1.40386
		}
	},
	{
		"name" : "Big Blue Cafe",
		"category" : "Cafe,British",
		"review_count" : 18,
		"rating" : 5,
		"location" : {
			"latitude" : null,
			"longtitude" : null
		}
	},
	{
		"name" : "The View Bar And Bistro",
		"category" : "British,Pub",
		"review_count" : 48,
		"rating" : 4.5,
		"location" : {
			"latitude" : 50.93697,
			"longtitude" : -1.41733
		}
	},
	{
		"name" : "Courtyard",
		"category" : "British",
		"review_count" : 49,
		"rating" : 4,
		"location" : {
			"latitude" : 50.91443,
			"longtitude" : -1.268567
		}
	},
	{
		"name" : "The Giddy Bridge",
		"category" : "British,Pub",
		"review_count" : 126,
		"rating" : 3.5,
		"location" : {
			"latitude" : 50.91079,
			"longtitude" : -1.404612
		}
	},
	{
		"name" : "Retro Cafe",
		"category" : "Cafe,European",
		"review_count" : 18,
		"rating" : 4.5,
		"location" : {
			"latitude" : 50.913,
			"longtitude" : -1.406243
		}
	},
	{
		"name" : "The Old Forge Inn",
		"category" : "British",
		"review_count" : 45,
		"rating" : 4,
		"location" : {
			"latitude" : 50.923923,
			"longtitude" : -1.199372
		}
	},
	{
		"name" : "Mexigo",
		"category" : "Mexican,Fast food",
		"review_count" : 85,
		"rating" : 4,
		"location" : {
			"latitude" : 50.91156,
			"longtitude" : -1.404044
		}
	},
	{
		"name" : "The Horns Inn",
		"category" : "British,Pub,Gluten Free Options",
		"review_count" : 123,
		"rating" : 3.5,
		"location" : {
			"latitude" : 50.94781,
			"longtitude" : -1.463717
		}
	},
	{
		"name" : "Harry Ramsden's",
		"category" : "Seafood,Fast food,British",
		"review_count" : 128,
		"rating" : 3.5,
		"location" : {
			"latitude" : 50.90376,
			"longtitude" : -1.41271
		}
	},
	{
		"name" : "Four Horseshoes",
		"category" : "British,Pub",
		"review_count" : 125,
		"rating" : 4,
		"location" : {
			"latitude" : 50.944965,
			"longtitude" : -1.47464
		}
	},
	{
		"name" : "Fox & Hounds",
		"category" : "British,Pub,Gluten Free Options",
		"review_count" : 442,
		"rating" : 3.5,
		"location" : {
			"latitude" : 50.88206,
			"longtitude" : -1.31852
		}
	},
	{
		"name" : "The Cowherds",
		"category" : "British,Pub,Gluten Free Options",
		"review_count" : 932,
		"rating" : 3.5,
		"location" : {
			"latitude" : 50.92405,
			"longtitude" : -1.405969
		}
	},
	{
		"name" : "Best Fry Fish and Chips",
		"category" : "Fast food,British,Seafood",
		"review_count" : 41,
		"rating" : 4.5,
		"location" : {
			"latitude" : 50.927593,
			"longtitude" : -1.334033
		}
	},
	{
		"name" : "The Testwood",
		"category" : "British,Pub",
		"review_count" : 158,
		"rating" : 3.5,
		"location" : {
			"latitude" : 50.93028,
			"longtitude" : -1.50356
		}
	},
	{
		"name" : "Casa Italia",
		"category" : "Italian,European,Pizza",
		"review_count" : 204,
		"rating" : 3.5,
		"location" : {
			"latitude" : 50.908607,
			"longtitude" : -1.411685
		}
	},
	{
		"name" : "Trago Lounge",
		"category" : "Cafe,Vegan Options,Gluten Free Options",
		"review_count" : 276,
		"rating" : 3.5,
		"location" : {
			"latitude" : 50.9266,
			"longtitude" : -1.391242
		}
	},
	{
		"name" : "88 Chinese Restaurant",
		"category" : "Chinese,Asian",
		"review_count" : 60,
		"rating" : 4,
		"location" : {
			"latitude" : 50.91192,
			"longtitude" : -1.403866
		}
	},
	{
		"name" : "Il Picchio Caffe",
		"category" : "Italian,Cafe",
		"review_count" : 42,
		"rating" : 5,
		"location" : {
			"latitude" : 50.925106,
			"longtitude" : -1.375575
		}
	},
	{
		"name" : "Small Fry Fish & Chip Shop Ltd",
		"category" : "Fast food,British,Seafood",
		"review_count" : 28,
		"rating" : 4.5,
		"location" : {
			"latitude" : 50.91925,
			"longtitude" : -1.39932
		}
	},
	{
		"name" : "Master Builder",
		"category" : "British,Pub",
		"review_count" : 120,
		"rating" : 4,
		"location" : {
			"latitude" : 50.931667,
			"longtitude" : -1.346428
		}
	},
	{
		"name" : "Pizza Express",
		"category" : "Italian,Pizza,Gluten Free Options",
		"review_count" : 129,
		"rating" : 4,
		"location" : {
			"latitude" : 50.90362,
			"longtitude" : -1.406868
		}
	},
	{
		"name" : "Southampton Arms",
		"category" : "British,Pub",
		"review_count" : 65,
		"rating" : 4,
		"location" : {
			"latitude" : 50.93215,
			"longtitude" : -1.321679
		}
	},
	{
		"name" : "Yo! Sushi",
		"category" : "Japanese,Sushi,Asian",
		"review_count" : 105,
		"rating" : 3.5,
		"location" : {
			"latitude" : 50.85829,
			"longtitude" : -1.31357
		}
	},
	{
		"name" : "The Blue Keys Bar & Restaurant",
		"category" : "European",
		"review_count" : 12,
		"rating" : 4.5,
		"location" : {
			"latitude" : 50.916683,
			"longtitude" : -1.413062
		}
	},
	{
		"name" : "West End Brewery",
		"category" : "British,Pub",
		"review_count" : 45,
		"rating" : 4,
		"location" : {
			"latitude" : 50.927902,
			"longtitude" : -1.335564
		}
	},
	{
		"name" : "The Cricketers",
		"category" : "British,Pub",
		"review_count" : 44,
		"rating" : 4,
		"location" : {
			"latitude" : 50.912914,
			"longtitude" : -1.404984
		}
	},
	{
		"name" : "Ketch Rigger",
		"category" : "British",
		"review_count" : 48,
		"rating" : 4,
		"location" : {
			"latitude" : 50.85176,
			"longtitude" : -1.311758
		}
	},
	{
		"name" : "Royal Bengal Restaurant",
		"category" : "Indian,Asian,Eastern European",
		"review_count" : 78,
		"rating" : 4.5,
		"location" : {
			"latitude" : 50.862167,
			"longtitude" : -1.329153
		}
	},
	{
		"name" : "Hythe Kebab Centre",
		"category" : "Fast food,Turkish,Middle Eastern,Halal",
		"review_count" : 12,
		"rating" : 5,
		"location" : {
			"latitude" : 50.870193,
			"longtitude" : -1.398061
		}
	},
	{
		"name" : "Kam's Palace",
		"category" : "Chinese,Asian",
		"review_count" : 249,
		"rating" : 3.5,
		"location" : {
			"latitude" : 50.870544,
			"longtitude" : -1.265317
		}
	},
	{
		"name" : "Harvester - The Windhover Manor",
		"category" : "British,Pub,Gluten Free Options",
		"review_count" : 455,
		"rating" : 3,
		"location" : {
			"latitude" : 50.89483,
			"longtitude" : -1.317754
		}
	},
	{
		"name" : "The Village Inn",
		"category" : "British,Pub",
		"review_count" : 167,
		"rating" : 3.5,
		"location" : {
			"latitude" : 50.87587,
			"longtitude" : -1.26824
		}
	},
	{
		"name" : "Pizza Express",
		"category" : "Italian,Pizza",
		"review_count" : 209,
		"rating" : 3.5,
		"location" : {
			"latitude" : 50.898052,
			"longtitude" : -1.397843
		}
	},
	{
		"name" : "Tiger Lilly",
		"category" : "Indian,Chinese,Eastern European",
		"review_count" : 105,
		"rating" : 4,
		"location" : {
			"latitude" : 50.912422,
			"longtitude" : -1.404365
		}
	},
	{
		"name" : "Maritimo Lounge",
		"category" : "Vegan Options,Gluten Free Options",
		"review_count" : 160,
		"rating" : 3.5,
		"location" : {
			"latitude" : null,
			"longtitude" : null
		}
	},
	{
		"name" : "Cafe Valletta",
		"category" : "Cafe,Mediterranean",
		"review_count" : 11,
		"rating" : 5,
		"location" : {
			"latitude" : 50.91387,
			"longtitude" : -1.446353
		}
	},
	{
		"name" : "Little Buddha",
		"category" : "Chinese,Asian",
		"review_count" : 107,
		"rating" : 3.5,
		"location" : {
			"latitude" : 50.920982,
			"longtitude" : -1.431937
		}
	},
	{
		"name" : "Nicole's Take-A-Way",
		"category" : "Indian,Fast food,Asian",
		"review_count" : 24,
		"rating" : 4.5,
		"location" : {
			"latitude" : 50.927464,
			"longtitude" : -1.500352
		}
	},
	{
		"name" : "Bengal Brasserie",
		"category" : "Indian,Asian,Eastern European",
		"review_count" : 43,
		"rating" : 4,
		"location" : {
			"latitude" : 50.911858,
			"longtitude" : -1.40586
		}
	},
	{
		"name" : "Byron Hamburgers",
		"category" : "American",
		"review_count" : 20,
		"rating" : 4,
		"location" : {
			"latitude" : 50.900406,
			"longtitude" : -1.404495
		}
	},
	{
		"name" : "Indian Summer Indian Takeway",
		"category" : "Indian,Asian,Eastern European",
		"review_count" : 39,
		"rating" : 4,
		"location" : {
			"latitude" : 50.87209,
			"longtitude" : -1.26798
		}
	},
	{
		"name" : "Thai Cafe",
		"category" : "Asian,Thai",
		"review_count" : 68,
		"rating" : 4,
		"location" : {
			"latitude" : 50.91649,
			"longtitude" : -1.426146
		}
	},
	{
		"name" : "Yellow Welly Cafe",
		"category" : "Cafe,British",
		"review_count" : 47,
		"rating" : 4,
		"location" : {
			"latitude" : 50.910107,
			"longtitude" : -1.379619
		}
	},
	{
		"name" : "Nando's",
		"category" : "Portuguese,European",
		"review_count" : 120,
		"rating" : 3.5,
		"location" : {
			"latitude" : 50.903862,
			"longtitude" : -1.407474
		}
	},
	{
		"name" : "JRC Global Buffet",
		"category" : "Italian,Chinese,Japanese,American,Indian,Sushi,European,Spanish,Asian,British,Vegetarian Friendly",
		"review_count" : 402,
		"rating" : 3,
		"location" : {
			"latitude" : 50.906933,
			"longtitude" : -1.406111
		}
	},
	{
		"name" : "Bengal Paradise",
		"category" : "Indian,Asian,Fast food",
		"review_count" : 17,
		"rating" : 4,
		"location" : {
			"latitude" : 50.924217,
			"longtitude" : -1.375731
		}
	},
	{
		"name" : "Malvern Tavern",
		"category" : "British,Pub",
		"review_count" : 65,
		"rating" : 3.5,
		"location" : {
			"latitude" : 50.932,
			"longtitude" : -1.423874
		}
	},
	{
		"name" : "Neighbourhood, Southampton",
		"category" : "American,Pub",
		"review_count" : 48,
		"rating" : 3.5,
		"location" : {
			"latitude" : 50.907703,
			"longtitude" : -1.404428
		}
	},
	{
		"name" : "Cabana Southampton",
		"category" : "Barbecue,Pub,Street Food,South American",
		"review_count" : 13,
		"rating" : 4,
		"location" : {
			"latitude" : 50.90381,
			"longtitude" : -1.407528
		}
	},
	{
		"name" : "Emons",
		"category" : "Asian,Indian,Fast food,Halal",
		"review_count" : 19,
		"rating" : 4.5,
		"location" : {
			"latitude" : 50.90886,
			"longtitude" : -1.416737
		}
	},
	{
		"name" : "The Prince Consort",
		"category" : "British,Pub,International",
		"review_count" : 63,
		"rating" : 3.5,
		"location" : {
			"latitude" : 50.874687,
			"longtitude" : -1.3548
		}
	},
	{
		"name" : "Jurys Inn Southampton",
		"category" : "British,Pub",
		"review_count" : 107,
		"rating" : 3.5,
		"location" : {
			"latitude" : 50.91094,
			"longtitude" : -1.40147
		}
	},
	{
		"name" : "Cargo Restaurant",
		"category" : "British",
		"review_count" : 72,
		"rating" : 3.5,
		"location" : {
			"latitude" : 50.89832,
			"longtitude" : -1.398735
		}
	},
	{
		"name" : "The Admiral Sir Lucius Curtis",
		"category" : "American,British,Pub",
		"review_count" : 101,
		"rating" : 3.5,
		"location" : {
			"latitude" : 50.896767,
			"longtitude" : -1.393771
		}
	},
	{
		"name" : "The ParkLife Cafe",
		"category" : "Cafe",
		"review_count" : 14,
		"rating" : 4,
		"location" : {
			"latitude" : 50.92463,
			"longtitude" : -1.43076
		}
	},
	{
		"name" : "New Forest Bistro",
		"category" : "Fast food",
		"review_count" : 20,
		"rating" : 4.5,
		"location" : {
			"latitude" : 50.817757,
			"longtitude" : -1.372395
		}
	},
	{
		"name" : "Anchor Inn",
		"category" : "British,Pub",
		"review_count" : 38,
		"rating" : 4,
		"location" : {
			"latitude" : 50.9124,
			"longtitude" : -1.48174
		}
	},
	{
		"name" : "Hong Kong Garden",
		"category" : "Chinese,Asian,Fast food",
		"review_count" : 23,
		"rating" : 4.5,
		"location" : {
			"latitude" : 50.914238,
			"longtitude" : -1.299812
		}
	},
	{
		"name" : "The White Swan",
		"category" : "British,Pub,Vegetarian Friendly,Gluten Free Options",
		"review_count" : 419,
		"rating" : 3.5,
		"location" : {
			"latitude" : 50.93798,
			"longtitude" : -1.361405
		}
	},
	{
		"name" : "Stacja PL Restaurant",
		"category" : "Polish,European,Eastern European",
		"review_count" : 22,
		"rating" : 4.5,
		"location" : {
			"latitude" : 50.913193,
			"longtitude" : -1.399412
		}
	},
	{
		"name" : "Holiday Inn Express South Hampton West Restaurant",
		"category" : "British",
		"review_count" : 36,
		"rating" : 3.5,
		"location" : {
			"latitude" : 50.936863,
			"longtitude" : -1.466995
		}
	},
	{
		"name" : "Cafe Portobello",
		"category" : "Vegetarian Friendly",
		"review_count" : 9,
		"rating" : 4.5,
		"location" : {
			"latitude" : 50.911682,
			"longtitude" : -1.404468
		}
	},
	{
		"name" : "Cafe W of Waterstones",
		"category" : "Cafe,Vegetarian Friendly",
		"review_count" : 13,
		"rating" : 4,
		"location" : {
			"latitude" : 50.905025,
			"longtitude" : -1.407571
		}
	},
	{
		"name" : "Belgium & Blues",
		"category" : "null",
		"review_count" : 11,
		"rating" : 4.5,
		"location" : {
			"latitude" : 50.909046,
			"longtitude" : -1.404459
		}
	},
	{
		"name" : "The Orangery",
		"category" : "null",
		"review_count" : 7,
		"rating" : 4.5,
		"location" : {
			"latitude" : 50.93948,
			"longtitude" : -1.334915
		}
	},
	{
		"name" : "The Fish Station",
		"category" : "Seafood,Fast food,European,Turkish",
		"review_count" : 13,
		"rating" : 4.5,
		"location" : {
			"latitude" : 50.90167,
			"longtitude" : -1.402419
		}
	},
	{
		"name" : "Chai Ice & Coffee Thai Restaurant",
		"category" : "Vegetarian Friendly,Vegan Options",
		"review_count" : 7,
		"rating" : 4.5,
		"location" : {
			"latitude" : 50.93811,
			"longtitude" : -1.379967
		}
	},
	{
		"name" : "Zizzi",
		"category" : "null",
		"review_count" : 14,
		"rating" : 4.5,
		"location" : {
			"latitude" : 50.903862,
			"longtitude" : -1.407474
		}
	},
	{
		"name" : "Viney's",
		"category" : "British,Vegetarian Friendly",
		"review_count" : 9,
		"rating" : 4.5,
		"location" : {
			"latitude" : 50.9145,
			"longtitude" : -1.270171
		}
	},
	{
		"name" : "St James Chippy",
		"category" : "Seafood",
		"review_count" : 8,
		"rating" : 5,
		"location" : {
			"latitude" : 50.920986,
			"longtitude" : -1.421838
		}
	},
	{
		"name" : "Lilies Asian Tandoori",
		"category" : "Indian,Vegetarian Friendly",
		"review_count" : 9,
		"rating" : 4.5,
		"location" : {
			"latitude" : 50.9132,
			"longtitude" : -1.435401
		}
	},
	{
		"name" : "King Rufus Public House",
		"category" : "Pizza,British",
		"review_count" : 5,
		"rating" : 5,
		"location" : {
			"latitude" : 50.909332,
			"longtitude" : -1.479174
		}
	},
	{
		"name" : "Thai 2 GO",
		"category" : "Asian,Thai",
		"review_count" : 31,
		"rating" : 4.5,
		"location" : {
			"latitude" : 50.914494,
			"longtitude" : -1.423382
		}
	},
	{
		"name" : "The Titanic Public House",
		"category" : "British,Pub",
		"review_count" : 51,
		"rating" : 4,
		"location" : {
			"latitude" : 50.899982,
			"longtitude" : -1.405875
		}
	},
	{
		"name" : "The Plough Inn",
		"category" : "British,Pub,Gluten Free Options",
		"review_count" : 160,
		"rating" : 3,
		"location" : {
			"latitude" : 50.889374,
			"longtitude" : -1.330262
		}
	},
	{
		"name" : "Make & Brew",
		"category" : "null",
		"review_count" : 5,
		"rating" : 5,
		"location" : {
			"latitude" : 50.920723,
			"longtitude" : -1.421323
		}
	},
	{
		"name" : "Pizza Hut",
		"category" : "Italian,Pizza",
		"review_count" : 55,
		"rating" : 3.5,
		"location" : {
			"latitude" : 50.917416,
			"longtitude" : -1.312364
		}
	},
	{
		"name" : "Chiquito - Southampton",
		"category" : "Mexican,Vegetarian Friendly",
		"review_count" : 160,
		"rating" : 3.5,
		"location" : {
			"latitude" : 50.896973,
			"longtitude" : -1.39369
		}
	},
	{
		"name" : "Olive Garden",
		"category" : "Mediterranean,Turkish,Middle Eastern,Italian,Greek,Persian",
		"review_count" : 25,
		"rating" : 4,
		"location" : {
			"latitude" : 50.89972,
			"longtitude" : -1.403993
		}
	},
	{
		"name" : "The Pavilion Bar at Hilton Hotel",
		"category" : "British",
		"review_count" : 64,
		"rating" : 3.5,
		"location" : {
			"latitude" : 50.95648,
			"longtitude" : -1.3999
		}
	},
	{
		"name" : "G J's Plaice",
		"category" : "null",
		"review_count" : 10,
		"rating" : 4.5,
		"location" : {
			"latitude" : 50.817875,
			"longtitude" : -1.372064
		}
	},
	{
		"name" : "Smoky Pizza",
		"category" : "Italian,Pizza,Fast food",
		"review_count" : 22,
		"rating" : 4,
		"location" : {
			"latitude" : 50.920322,
			"longtitude" : -1.395637
		}
	},
	{
		"name" : "Ed's Easy Diner",
		"category" : "American,Fast food",
		"review_count" : 277,
		"rating" : 3,
		"location" : {
			"latitude" : 50.90339,
			"longtitude" : -1.407505
		}
	},
	{
		"name" : "Royal India",
		"category" : "Indian,Asian,Eastern European",
		"review_count" : 74,
		"rating" : 4.5,
		"location" : {
			"latitude" : 50.897823,
			"longtitude" : -1.376522
		}
	},
	{
		"name" : "Eastern Nights",
		"category" : "Indian,Asian,Eastern European",
		"review_count" : 68,
		"rating" : 4,
		"location" : {
			"latitude" : 50.91449,
			"longtitude" : -1.336181
		}
	},
	{
		"name" : "Taco Bell",
		"category" : "null",
		"review_count" : 3,
		"rating" : 5,
		"location" : {
			"latitude" : 50.903175,
			"longtitude" : -1.403705
		}
	},
	{
		"name" : "Sholing Grill",
		"category" : "null",
		"review_count" : 3,
		"rating" : 5,
		"location" : {
			"latitude" : 50.903423,
			"longtitude" : -1.346862
		}
	},
	{
		"name" : "Bulthi Hut",
		"category" : "null",
		"review_count" : 4,
		"rating" : 5,
		"location" : {
			"latitude" : 50.890812,
			"longtitude" : -1.450955
		}
	},
	{
		"name" : "Tortilla",
		"category" : "Mexican,Fast food,Latin,Spanish,South American",
		"review_count" : 21,
		"rating" : 4,
		"location" : {
			"latitude" : null,
			"longtitude" : null
		}
	},
	{
		"name" : "Pizzaroma",
		"category" : "Italian",
		"review_count" : 6,
		"rating" : 5,
		"location" : {
			"latitude" : 50.917595,
			"longtitude" : -1.376132
		}
	},
	{
		"name" : "Golden Pool",
		"category" : "null",
		"review_count" : 8,
		"rating" : 4.5,
		"location" : {
			"latitude" : 50.92504,
			"longtitude" : -1.463933
		}
	},
	{
		"name" : "Purbani",
		"category" : "Indian,Asian,Eastern European",
		"review_count" : 164,
		"rating" : 3.5,
		"location" : {
			"latitude" : 50.914494,
			"longtitude" : -1.270071
		}
	},
	{
		"name" : "Aroma Indian Cuisine",
		"category" : "Indian,Asian,Eastern European",
		"review_count" : 55,
		"rating" : 3.5,
		"location" : {
			"latitude" : 50.8313,
			"longtitude" : -1.379564
		}
	},
	{
		"name" : "Aroma Lounge",
		"category" : "Indian,Halal",
		"review_count" : 41,
		"rating" : 4,
		"location" : {
			"latitude" : 50.923607,
			"longtitude" : -1.394521
		}
	},
	{
		"name" : "The Waterloo Arms",
		"category" : "Pub",
		"review_count" : 12,
		"rating" : 4.5,
		"location" : {
			"latitude" : 50.91131,
			"longtitude" : -1.426773
		}
	},
	{
		"name" : "Indulgence Bargate Southampton",
		"category" : "Cafe,French,British",
		"review_count" : 21,
		"rating" : 4.5,
		"location" : {
			"latitude" : 50.902866,
			"longtitude" : -1.403948
		}
	},
	{
		"name" : "Red Rover",
		"category" : "British,Pub",
		"review_count" : 149,
		"rating" : 3.5,
		"location" : {
			"latitude" : 50.93371,
			"longtitude" : -1.51054
		}
	},
	{
		"name" : "Imli Indian Cuisine",
		"category" : "Indian,Asian",
		"review_count" : 24,
		"rating" : 4.5,
		"location" : {
			"latitude" : 50.928616,
			"longtitude" : -1.331798
		}
	},
	{
		"name" : "Oasis Bar",
		"category" : "null",
		"review_count" : 19,
		"rating" : 4.5,
		"location" : {
			"latitude" : 50.900146,
			"longtitude" : -1.404109
		}
	},
	{
		"name" : "The Wheatsheaf",
		"category" : "Pub",
		"review_count" : 16,
		"rating" : 4.5,
		"location" : {
			"latitude" : null,
			"longtitude" : null
		}
	},
	{
		"name" : "The Moby Dick",
		"category" : "Fast food,Seafood",
		"review_count" : 16,
		"rating" : 4.5,
		"location" : {
			"latitude" : 50.922485,
			"longtitude" : -1.432872
		}
	},
	{
		"name" : "The Barleycorn",
		"category" : "British,Pub",
		"review_count" : 48,
		"rating" : 4,
		"location" : {
			"latitude" : 50.913734,
			"longtitude" : -1.302272
		}
	},
	{
		"name" : "The Terrace Sandwich Bar",
		"category" : "null",
		"review_count" : 4,
		"rating" : 5,
		"location" : {
			"latitude" : 50.89775,
			"longtitude" : -1.39789
		}
	},
	{
		"name" : "Gandhi",
		"category" : "Indian,Asian",
		"review_count" : 199,
		"rating" : 3.5,
		"location" : {
			"latitude" : 50.925846,
			"longtitude" : -1.393021
		}
	},
	{
		"name" : "Taste Of China",
		"category" : "Chinese",
		"review_count" : 8,
		"rating" : 4.5,
		"location" : {
			"latitude" : 50.90391,
			"longtitude" : -1.396707
		}
	},
	{
		"name" : "Genting Club",
		"category" : "British,Pub",
		"review_count" : 44,
		"rating" : 3.5,
		"location" : {
			"latitude" : 50.89849,
			"longtitude" : -1.396571
		}
	},
	{
		"name" : "Romna Tandoori Indian Take Away",
		"category" : "Indian",
		"review_count" : 10,
		"rating" : 4.5,
		"location" : {
			"latitude" : 50.9151,
			"longtitude" : -1.486767
		}
	},
	{
		"name" : "Tariq Manzils",
		"category" : "Indian,Asian,Eastern European,Halal",
		"review_count" : 79,
		"rating" : 4,
		"location" : {
			"latitude" : 50.915695,
			"longtitude" : -1.396522
		}
	},
	{
		"name" : "Thyme Premier Inn",
		"category" : "British,Gluten Free Options",
		"review_count" : 72,
		"rating" : 3.5,
		"location" : {
			"latitude" : 50.90119,
			"longtitude" : -1.409138
		}
	},
	{
		"name" : "Chip N Tails",
		"category" : "Fast food",
		"review_count" : 16,
		"rating" : 4.5,
		"location" : {
			"latitude" : 50.8653,
			"longtitude" : -1.40427
		}
	},
	{
		"name" : "Thyme",
		"category" : "British,International",
		"review_count" : 78,
		"rating" : 4,
		"location" : {
			"latitude" : 50.953476,
			"longtitude" : -1.359801
		}
	},
	{
		"name" : "Spitfire",
		"category" : "British,Pub",
		"review_count" : 105,
		"rating" : 3.5,
		"location" : {
			"latitude" : 50.90757,
			"longtitude" : -1.404236
		}
	},
	{
		"name" : "Cafe Reflections",
		"category" : "Cafe,British",
		"review_count" : 21,
		"rating" : 4.5,
		"location" : {
			"latitude" : 50.92175,
			"longtitude" : -1.432272
		}
	},
	{
		"name" : "TGI Friday's",
		"category" : "American,Pub",
		"review_count" : 691,
		"rating" : 3,
		"location" : {
			"latitude" : 50.90376,
			"longtitude" : -1.41271
		}
	},
	{
		"name" : "Ask Italian",
		"category" : "Italian,Pizza,Gluten Free Options",
		"review_count" : 171,
		"rating" : 3.5,
		"location" : {
			"latitude" : 50.902287,
			"longtitude" : -1.413303
		}
	},
	{
		"name" : "Gourmet Burger Kitchen",
		"category" : "American,Pub,Vegetarian Friendly,Gluten Free Options",
		"review_count" : 45,
		"rating" : 3.5,
		"location" : {
			"latitude" : 50.907677,
			"longtitude" : -1.405033
		}
	},
	{
		"name" : "Petrony's Pizza",
		"category" : "Italian,Pizza",
		"review_count" : 12,
		"rating" : 4,
		"location" : {
			"latitude" : 50.918667,
			"longtitude" : -1.486764
		}
	},
	{
		"name" : "Round About Cafe",
		"category" : "British",
		"review_count" : 6,
		"rating" : 4.5,
		"location" : {
			"latitude" : 50.94184,
			"longtitude" : -1.373008
		}
	},
	{
		"name" : "Scoozi",
		"category" : "Italian,Pizza",
		"review_count" : 186,
		"rating" : 3.5,
		"location" : {
			"latitude" : 50.897778,
			"longtitude" : -1.39737
		}
	},
	{
		"name" : "The Jackpot Cafe",
		"category" : "Cafe,British",
		"review_count" : 11,
		"rating" : 4.5,
		"location" : {
			"latitude" : 50.933544,
			"longtitude" : -1.382686
		}
	},
	{
		"name" : "The Old Ship",
		"category" : "British,Pub",
		"review_count" : 96,
		"rating" : 3.5,
		"location" : {
			"latitude" : 50.881294,
			"longtitude" : -1.296235
		}
	},
	{
		"name" : "Cafe at The Hawthorns",
		"category" : "Cafe",
		"review_count" : 18,
		"rating" : 4,
		"location" : {
			"latitude" : null,
			"longtitude" : null
		}
	},
	{
		"name" : "Poppins",
		"category" : "null",
		"review_count" : 7,
		"rating" : 4,
		"location" : {
			"latitude" : 50.90228,
			"longtitude" : -1.404487
		}
	},
	{
		"name" : "Shooting Star",
		"category" : "Pub",
		"review_count" : 8,
		"rating" : 4,
		"location" : {
			"latitude" : 50.916473,
			"longtitude" : -1.396109
		}
	},
	{
		"name" : "Roosters Piri Piri Southampton",
		"category" : "Fast food,Lebanese,Mediterranean,European,Portuguese",
		"review_count" : 22,
		"rating" : 4,
		"location" : {
			"latitude" : 50.91168,
			"longtitude" : -1.404467
		}
	},
	{
		"name" : "Cafe Goa",
		"category" : "null",
		"review_count" : 6,
		"rating" : 5,
		"location" : {
			"latitude" : 50.906693,
			"longtitude" : -1.404538
		}
	},
	{
		"name" : "Signature Restaurant",
		"category" : "null",
		"review_count" : 3,
		"rating" : 5,
		"location" : {
			"latitude" : 50.900246,
			"longtitude" : -1.403576
		}
	},
	{
		"name" : "Pizza Cottage",
		"category" : "null",
		"review_count" : 3,
		"rating" : 5,
		"location" : {
			"latitude" : null,
			"longtitude" : null
		}
	},
	{
		"name" : "Pig n Whistle",
		"category" : "Cafe,Pub",
		"review_count" : 2,
		"rating" : 5,
		"location" : {
			"latitude" : 50.912197,
			"longtitude" : -1.420961
		}
	},
	{
		"name" : "Puja Sweet Mart",
		"category" : "null",
		"review_count" : 3,
		"rating" : 5,
		"location" : {
			"latitude" : 50.909912,
			"longtitude" : -1.399347
		}
	},
	{
		"name" : "Coleman's",
		"category" : "null",
		"review_count" : 4,
		"rating" : 5,
		"location" : {
			"latitude" : 50.908607,
			"longtitude" : -1.411988
		}
	},
	{
		"name" : "Romsey Golf Club",
		"category" : "null",
		"review_count" : 3,
		"rating" : 5,
		"location" : {
			"latitude" : null,
			"longtitude" : null
		}
	},
	{
		"name" : "Jacqs sandwich bar",
		"category" : "British",
		"review_count" : 2,
		"rating" : 5,
		"location" : {
			"latitude" : 50.89713,
			"longtitude" : -1.379677
		}
	},
	{
		"name" : "Lils Plaice",
		"category" : "Seafood",
		"review_count" : 7,
		"rating" : 4.5,
		"location" : {
			"latitude" : 50.92811,
			"longtitude" : -1.450907
		}
	},
	{
		"name" : "McDonald's",
		"category" : "Fast food",
		"review_count" : 14,
		"rating" : 4,
		"location" : {
			"latitude" : 50.90376,
			"longtitude" : -1.41271
		}
	},
	{
		"name" : "90 Degrees",
		"category" : "British",
		"review_count" : 13,
		"rating" : 4,
		"location" : {
			"latitude" : 50.912598,
			"longtitude" : -1.405534
		}
	},
	{
		"name" : "The Salmon Leap Pub",
		"category" : "British,Pub",
		"review_count" : 13,
		"rating" : 4,
		"location" : {
			"latitude" : 50.92451,
			"longtitude" : -1.48965
		}
	},
	{
		"name" : "Nando's",
		"category" : "Fast food,European,Portuguese",
		"review_count" : 25,
		"rating" : 3.5,
		"location" : {
			"latitude" : 50.9073,
			"longtitude" : -1.40462
		}
	},
	{
		"name" : "Balkh Restaurant",
		"category" : "Middle Eastern",
		"review_count" : 5,
		"rating" : 4.5,
		"location" : {
			"latitude" : 50.906147,
			"longtitude" : -1.396508
		}
	},
	{
		"name" : "Persian Paradise",
		"category" : "Middle Eastern,Persian",
		"review_count" : 17,
		"rating" : 4,
		"location" : {
			"latitude" : 50.923283,
			"longtitude" : -1.394845
		}
	},
	{
		"name" : "Todd English",
		"category" : "American",
		"review_count" : 20,
		"rating" : 4.5,
		"location" : {
			"latitude" : 51.27179,
			"longtitude" : -1.0895
		}
	},
	{
		"name" : "Shakeaway",
		"category" : "null",
		"review_count" : 5,
		"rating" : 4.5,
		"location" : {
			"latitude" : 50.906094,
			"longtitude" : -1.405811
		}
	},
	{
		"name" : "Poppy's cafe",
		"category" : "null",
		"review_count" : 6,
		"rating" : 5,
		"location" : {
			"latitude" : 50.920467,
			"longtitude" : -1.43129
		}
	},
	{
		"name" : "Broadstreet Restaurant and Bar",
		"category" : "British,International,European",
		"review_count" : 40,
		"rating" : 4,
		"location" : {
			"latitude" : 50.921593,
			"longtitude" : -1.210172
		}
	},
	{
		"name" : "Strawberry Field Tavern",
		"category" : "British,Pub",
		"review_count" : 66,
		"rating" : 3.5,
		"location" : {
			"latitude" : 50.863853,
			"longtitude" : -1.275409
		}
	},
	{
		"name" : "Cove",
		"category" : "null",
		"review_count" : 3,
		"rating" : 4.5,
		"location" : {
			"latitude" : 50.91004,
			"longtitude" : -1.38338
		}
	},
	{
		"name" : "The Frying Fish",
		"category" : "Seafood",
		"review_count" : 3,
		"rating" : 4.5,
		"location" : {
			"latitude" : 50.914486,
			"longtitude" : -1.336119
		}
	},
	{
		"name" : "The Anchor At Redbridge",
		"category" : "British,Pub",
		"review_count" : 11,
		"rating" : 4,
		"location" : {
			"latitude" : 50.92383,
			"longtitude" : -1.475252
		}
	},
	{
		"name" : "Blue box cafe",
		"category" : "Cafe",
		"review_count" : 12,
		"rating" : 4,
		"location" : {
			"latitude" : null,
			"longtitude" : null
		}
	},
	{
		"name" : "Bangla Balti House",
		"category" : "Indian,Asian",
		"review_count" : 11,
		"rating" : 4,
		"location" : {
			"latitude" : 50.93144,
			"longtitude" : -1.424504
		}
	},
	{
		"name" : "The Stile",
		"category" : "Pub",
		"review_count" : 37,
		"rating" : 4,
		"location" : {
			"latitude" : 50.937866,
			"longtitude" : -1.396735
		}
	},
	{
		"name" : "The Yacht Tavern",
		"category" : "null",
		"review_count" : 4,
		"rating" : 4.5,
		"location" : {
			"latitude" : 50.901054,
			"longtitude" : -1.381272
		}
	},
	{
		"name" : "Fox & Hounds",
		"category" : "Caribbean,Polish,European,Pub",
		"review_count" : 1,
		"rating" : 5,
		"location" : {
			"latitude" : 50.882023,
			"longtitude" : -1.318395
		}
	},
	{
		"name" : "Wild Orchid",
		"category" : "British",
		"review_count" : 1,
		"rating" : 5,
		"location" : {
			"latitude" : null,
			"longtitude" : null
		}
	},
	{
		"name" : "City Beijing",
		"category" : "Chinese",
		"review_count" : 2,
		"rating" : 5,
		"location" : {
			"latitude" : 50.90014,
			"longtitude" : -1.404217
		}
	},
	{
		"name" : "The lounge",
		"category" : "Indian",
		"review_count" : 1,
		"rating" : 5,
		"location" : {
			"latitude" : null,
			"longtitude" : null
		}
	},
	{
		"name" : "Pride Of India",
		"category" : "Indian",
		"review_count" : 1,
		"rating" : 5,
		"location" : {
			"latitude" : 50.912003,
			"longtitude" : -1.405976
		}
	},
	{
		"name" : "Curryhut",
		"category" : "Indian",
		"review_count" : 1,
		"rating" : 5,
		"location" : {
			"latitude" : 50.87169,
			"longtitude" : -1.268496
		}
	},
	{
		"name" : "Dersim Takeaway",
		"category" : "null",
		"review_count" : 2,
		"rating" : 5,
		"location" : {
			"latitude" : 50.909046,
			"longtitude" : -1.404459
		}
	},
	{
		"name" : "The Dragon Palace",
		"category" : "null",
		"review_count" : 1,
		"rating" : 5,
		"location" : {
			"latitude" : 50.905033,
			"longtitude" : -1.404026
		}
	},
	{
		"name" : "Caffe Celeste",
		"category" : "null",
		"review_count" : 1,
		"rating" : 5,
		"location" : {
			"latitude" : 50.8897,
			"longtitude" : -1.316778
		}
	},
	{
		"name" : "Shirley's",
		"category" : "null",
		"review_count" : 1,
		"rating" : 5,
		"location" : {
			"latitude" : 50.92206,
			"longtitude" : -1.433088
		}
	},
	{
		"name" : "Tasty Curry",
		"category" : "null",
		"review_count" : 1,
		"rating" : 5,
		"location" : {
			"latitude" : null,
			"longtitude" : null
		}
	},
	{
		"name" : "Bucks Head",
		"category" : "null",
		"review_count" : 2,
		"rating" : 5,
		"location" : {
			"latitude" : null,
			"longtitude" : null
		}
	},
	{
		"name" : "The Regents Park",
		"category" : "null",
		"review_count" : 2,
		"rating" : 5,
		"location" : {
			"latitude" : 50.915688,
			"longtitude" : -1.442864
		}
	},
	{
		"name" : "Portswood Chinese",
		"category" : "Chinese",
		"review_count" : 2,
		"rating" : 5,
		"location" : {
			"latitude" : 50.92754,
			"longtitude" : -1.387873
		}
	},
	{
		"name" : "Shama Restaurant",
		"category" : "Middle Eastern",
		"review_count" : 2,
		"rating" : 5,
		"location" : {
			"latitude" : 50.904587,
			"longtitude" : -1.396627
		}
	},
	{
		"name" : "Evergreen Chinese Takeaway",
		"category" : "Chinese",
		"review_count" : 1,
		"rating" : 5,
		"location" : {
			"latitude" : null,
			"longtitude" : null
		}
	},
	{
		"name" : "The Terracotta Room",
		"category" : "null",
		"review_count" : 1,
		"rating" : 5,
		"location" : {
			"latitude" : 50.93513,
			"longtitude" : -1.235983
		}
	},
	{
		"name" : "The Old Farmhouse",
		"category" : "null",
		"review_count" : 1,
		"rating" : 5,
		"location" : {
			"latitude" : 50.91477,
			"longtitude" : -1.392514
		}
	},
	{
		"name" : "Juniper Berry",
		"category" : "Pub,British",
		"review_count" : 40,
		"rating" : 3.5,
		"location" : {
			"latitude" : 50.900135,
			"longtitude" : -1.405869
		}
	},
	{
		"name" : "Holbury Chinese",
		"category" : "Chinese",
		"review_count" : 7,
		"rating" : 4,
		"location" : {
			"latitude" : 50.831623,
			"longtitude" : -1.38014
		}
	},
	{
		"name" : "Costa Express",
		"category" : "null",
		"review_count" : 4,
		"rating" : 4.5,
		"location" : {
			"latitude" : null,
			"longtitude" : null
		}
	},
	{
		"name" : "Spudulike",
		"category" : "null",
		"review_count" : 3,
		"rating" : 4.5,
		"location" : {
			"latitude" : 50.905834,
			"longtitude" : -1.404728
		}
	},
	{
		"name" : "The Olive Tree",
		"category" : "British",
		"review_count" : 75,
		"rating" : 3.5,
		"location" : {
			"latitude" : null,
			"longtitude" : null
		}
	},
	{
		"name" : "Tucks Cafe",
		"category" : "British",
		"review_count" : 9,
		"rating" : 4,
		"location" : {
			"latitude" : 50.923203,
			"longtitude" : -1.434611
		}
	},
	{
		"name" : "Tasty Plaice",
		"category" : "Fast food",
		"review_count" : 16,
		"rating" : 4,
		"location" : {
			"latitude" : 50.897877,
			"longtitude" : -1.378315
		}
	},
	{
		"name" : "The Retro Diner",
		"category" : "Cafe,American",
		"review_count" : 19,
		"rating" : 4.5,
		"location" : {
			"latitude" : 50.914707,
			"longtitude" : -1.423639
		}
	},
	{
		"name" : "Crepes",
		"category" : "French,British",
		"review_count" : 3,
		"rating" : 4.5,
		"location" : {
			"latitude" : null,
			"longtitude" : null
		}
	},
	{
		"name" : "The Place to Eat John Lewis",
		"category" : "Cafe,British,Gluten Free Options",
		"review_count" : 124,
		"rating" : 3.5,
		"location" : {
			"latitude" : 50.903862,
			"longtitude" : -1.407474
		}
	},
	{
		"name" : "The Big Breakfast",
		"category" : "null",
		"review_count" : 9,
		"rating" : 4,
		"location" : {
			"latitude" : 50.90168,
			"longtitude" : -1.403334
		}
	},
	{
		"name" : "The Anvil Cafe",
		"category" : "null",
		"review_count" : 4,
		"rating" : 5,
		"location" : {
			"latitude" : 50.94647,
			"longtitude" : -1.22156
		}
	},
	{
		"name" : "Wham Bam Tikka",
		"category" : "Indian,Fast food,Vegetarian Friendly,Vegan Options",
		"review_count" : 15,
		"rating" : 4,
		"location" : {
			"latitude" : 50.903862,
			"longtitude" : -1.407474
		}
	},
	{
		"name" : "Krispy Kreme",
		"category" : "null",
		"review_count" : 4,
		"rating" : 4.5,
		"location" : {
			"latitude" : 50.903862,
			"longtitude" : -1.407474
		}
	},
	{
		"name" : "Valentino's of Warsash",
		"category" : "Cafe",
		"review_count" : 16,
		"rating" : 4.5,
		"location" : {
			"latitude" : 50.85323,
			"longtitude" : -1.30099
		}
	},
	{
		"name" : "Pizza Hut",
		"category" : "Pizza",
		"review_count" : 20,
		"rating" : 3.5,
		"location" : {
			"latitude" : 50.93056,
			"longtitude" : -1.30853
		}
	},
	{
		"name" : "Texas Grill",
		"category" : "American,Halal",
		"review_count" : 39,
		"rating" : 3.5,
		"location" : {
			"latitude" : 50.916412,
			"longtitude" : -1.395887
		}
	},
	{
		"name" : "MishMish World food cafe",
		"category" : "Italian,Indian,Asian,Middle Eastern",
		"review_count" : 6,
		"rating" : 5,
		"location" : {
			"latitude" : 50.90123,
			"longtitude" : -1.404202
		}
	},
	{
		"name" : "Pitstop Food & News",
		"category" : "Fast food",
		"review_count" : 8,
		"rating" : 4,
		"location" : {
			"latitude" : 50.908634,
			"longtitude" : -1.387516
		}
	},
	{
		"name" : "The Haywain Crown Carveries",
		"category" : "British,Pub",
		"review_count" : 213,
		"rating" : 3.5,
		"location" : {
			"latitude" : 50.91763,
			"longtitude" : -1.564811
		}
	},
	{
		"name" : "Rib Ranch",
		"category" : "American,Barbecue",
		"review_count" : 18,
		"rating" : 3.5,
		"location" : {
			"latitude" : 50.92761,
			"longtitude" : -1.388234
		}
	},
	{
		"name" : "Hong Kong House",
		"category" : "Chinese",
		"review_count" : 6,
		"rating" : 4,
		"location" : {
			"latitude" : 50.914955,
			"longtitude" : -1.431906
		}
	},
	{
		"name" : "Medbar",
		"category" : "Seafood,Spanish",
		"review_count" : 192,
		"rating" : 3.5,
		"location" : {
			"latitude" : 50.898075,
			"longtitude" : -1.398507
		}
	},
	{
		"name" : "Frankie & Benny's New York Italian Restaurant & Bar - Southampton",
		"category" : "Italian,American,Pizza",
		"review_count" : 211,
		"rating" : 3,
		"location" : {
			"latitude" : 50.90253,
			"longtitude" : -1.414017
		}
	},
	{
		"name" : "The Boat shop Cafe",
		"category" : "Cafe,Vegetarian Friendly",
		"review_count" : 12,
		"rating" : 4.5,
		"location" : {
			"latitude" : 50.898525,
			"longtitude" : -1.378494
		}
	},
	{
		"name" : "The Strand",
		"category" : "British",
		"review_count" : 10,
		"rating" : 4.5,
		"location" : {
			"latitude" : 50.903133,
			"longtitude" : -1.403043
		}
	},
	{
		"name" : "Thai Kitchen",
		"category" : "Asian,Thai",
		"review_count" : 34,
		"rating" : 4,
		"location" : {
			"latitude" : 50.80867,
			"longtitude" : -1.36775
		}
	},
	{
		"name" : "West End Kebab and Pizza Place",
		"category" : "Pizza,Fast food",
		"review_count" : 21,
		"rating" : 3.5,
		"location" : {
			"latitude" : 50.92746,
			"longtitude" : -1.33584
		}
	},
	{
		"name" : "Brewdog",
		"category" : "Pizza,Pub",
		"review_count" : 5,
		"rating" : 4,
		"location" : {
			"latitude" : 50.91297,
			"longtitude" : -1.405646
		}
	},
	{
		"name" : "The Lucky House",
		"category" : "null",
		"review_count" : 2,
		"rating" : 4.5,
		"location" : {
			"latitude" : 50.930004,
			"longtitude" : -1.439202
		}
	},
	{
		"name" : "Star Fried Chicken",
		"category" : "null",
		"review_count" : 8,
		"rating" : 4,
		"location" : {
			"latitude" : 50.93826,
			"longtitude" : -1.392707
		}
	},
	{
		"name" : "Franco Manca",
		"category" : "Italian,Pizza",
		"review_count" : 8,
		"rating" : 4,
		"location" : {
			"latitude" : 50.90284,
			"longtitude" : -1.406253
		}
	},
	{
		"name" : "B L T's",
		"category" : "null",
		"review_count" : 2,
		"rating" : 4.5,
		"location" : {
			"latitude" : 50.908783,
			"longtitude" : -1.411747
		}
	},
	{
		"name" : "Magic Wok",
		"category" : "Chinese",
		"review_count" : 3,
		"rating" : 4.5,
		"location" : {
			"latitude" : 50.917793,
			"longtitude" : -1.427338
		}
	},
	{
		"name" : "Victory Inn",
		"category" : "British",
		"review_count" : 7,
		"rating" : 4,
		"location" : {
			"latitude" : 50.89947,
			"longtitude" : -1.403803
		}
	},
	{
		"name" : "Taste Of India",
		"category" : "Indian",
		"review_count" : 2,
		"rating" : 4.5,
		"location" : {
			"latitude" : 50.938286,
			"longtitude" : -1.392208
		}
	},
	{
		"name" : "Nosh",
		"category" : "Cafe",
		"review_count" : 11,
		"rating" : 4.5,
		"location" : {
			"latitude" : 50.90276,
			"longtitude" : -1.401742
		}
	},
	{
		"name" : "Chopsticks",
		"category" : "Chinese,Asian,Fast food",
		"review_count" : 16,
		"rating" : 4,
		"location" : {
			"latitude" : 50.91845,
			"longtitude" : -1.487377
		}
	},
	{
		"name" : "EBB & Flow",
		"category" : "British,Cafe",
		"review_count" : 149,
		"rating" : 3.5,
		"location" : {
			"latitude" : 50.906467,
			"longtitude" : -1.404298
		}
	},
	{
		"name" : "Happy Palace",
		"category" : "null",
		"review_count" : 4,
		"rating" : 4.5,
		"location" : {
			"latitude" : 50.918827,
			"longtitude" : -1.486168
		}
	},
	{
		"name" : "allsorts psychic cafe",
		"category" : "null",
		"review_count" : 5,
		"rating" : 5,
		"location" : {
			"latitude" : 50.9127,
			"longtitude" : -1.405358
		}
	},
	{
		"name" : "The Cottage Inn",
		"category" : "British,Pub",
		"review_count" : 68,
		"rating" : 4.5,
		"location" : {
			"latitude" : 50.879494,
			"longtitude" : -1.33966
		}
	},
	{
		"name" : "The Social",
		"category" : "British,Pub",
		"review_count" : 25,
		"rating" : 4.5,
		"location" : {
			"latitude" : 50.912346,
			"longtitude" : -1.405463
		}
	},
	{
		"name" : "king alfred pub",
		"category" : "Pub",
		"review_count" : 2,
		"rating" : 4.5,
		"location" : {
			"latitude" : 50.907574,
			"longtitude" : -1.39465
		}
	},
	{
		"name" : "Full House",
		"category" : "null",
		"review_count" : 5,
		"rating" : 4,
		"location" : {
			"latitude" : 50.922348,
			"longtitude" : -1.34326
		}
	},
	{
		"name" : "Brigadeer Gerard",
		"category" : "British,Pub",
		"review_count" : 37,
		"rating" : 3.5,
		"location" : {
			"latitude" : null,
			"longtitude" : null
		}
	},
	{
		"name" : "Junction Inn",
		"category" : "Pub",
		"review_count" : 4,
		"rating" : 4.5,
		"location" : {
			"latitude" : null,
			"longtitude" : null
		}
	},
	{
		"name" : "The Mitre",
		"category" : "British,Pub",
		"review_count" : 44,
		"rating" : 3,
		"location" : {
			"latitude" : 50.9267,
			"longtitude" : -1.390751
		}
	},
	{
		"name" : "Captain Masalla",
		"category" : "null",
		"review_count" : 3,
		"rating" : 4.5,
		"location" : {
			"latitude" : 50.923714,
			"longtitude" : -1.375553
		}
	},
	{
		"name" : "Macho's",
		"category" : "Fast food,American",
		"review_count" : 22,
		"rating" : 4,
		"location" : {
			"latitude" : 50.90714,
			"longtitude" : -1.400594
		}
	},
	{
		"name" : "Golden River",
		"category" : "null",
		"review_count" : 4,
		"rating" : 4.5,
		"location" : {
			"latitude" : 50.925037,
			"longtitude" : -1.375813
		}
	},
	{
		"name" : "Prezzo",
		"category" : "Italian",
		"review_count" : 5,
		"rating" : 4,
		"location" : {
			"latitude" : 50.898193,
			"longtitude" : -1.398516
		}
	},
	{
		"name" : "The Hungry Diner",
		"category" : "",
		"review_count" : 9,
		"rating" : 3.5,
		"location" : {
			"latitude" : 50.92202,
			"longtitude" : -1.433038
		}
	},
	{
		"name" : "Winchester Restaurant",
		"category" : "European,British",
		"review_count" : 16,
		"rating" : 4,
		"location" : {
			"latitude" : 50.93314,
			"longtitude" : -1.283963
		}
	},
	{
		"name" : "Frying Nemo",
		"category" : "null",
		"review_count" : 4,
		"rating" : 4,
		"location" : {
			"latitude" : 50.925358,
			"longtitude" : -1.392897
		}
	},
	{
		"name" : "Touch Of Spice",
		"category" : "null",
		"review_count" : 7,
		"rating" : 4.5,
		"location" : {
			"latitude" : null,
			"longtitude" : null
		}
	},
	{
		"name" : "Cosmo",
		"category" : "null",
		"review_count" : 5,
		"rating" : 4,
		"location" : {
			"latitude" : 50.903862,
			"longtitude" : -1.407474
		}
	},
	{
		"name" : "Bitz And Pizzaz",
		"category" : "null",
		"review_count" : 3,
		"rating" : 4.5,
		"location" : {
			"latitude" : 50.900326,
			"longtitude" : -1.401239
		}
	},
	{
		"name" : "Frankie and Bennys",
		"category" : "Italian,American",
		"review_count" : 32,
		"rating" : 3.5,
		"location" : {
			"latitude" : null,
			"longtitude" : null
		}
	},
	{
		"name" : "The Big Cheese Hungry Horse",
		"category" : "British,Pub",
		"review_count" : 66,
		"rating" : 3.5,
		"location" : {
			"latitude" : 50.920788,
			"longtitude" : -1.3562
		}
	},
	{
		"name" : "Fantinis",
		"category" : "Italian",
		"review_count" : 15,
		"rating" : 3.5,
		"location" : {
			"latitude" : 50.895973,
			"longtitude" : -1.402917
		}
	},
	{
		"name" : "Subway",
		"category" : "null",
		"review_count" : 8,
		"rating" : 4,
		"location" : {
			"latitude" : 50.869312,
			"longtitude" : -1.399919
		}
	},
	{
		"name" : "Thaikhun Southampton",
		"category" : "Thai,Street Food",
		"review_count" : 19,
		"rating" : 3.5,
		"location" : {
			"latitude" : null,
			"longtitude" : null
		}
	},
	{
		"name" : "The Victory",
		"category" : "Chinese,Fast food,Asian",
		"review_count" : 16,
		"rating" : 3.5,
		"location" : {
			"latitude" : 50.91263,
			"longtitude" : -1.35422
		}
	},
	{
		"name" : "The Globe Bar & Kitchen",
		"category" : "",
		"review_count" : 25,
		"rating" : 3.5,
		"location" : {
			"latitude" : 50.953476,
			"longtitude" : -1.359801
		}
	},
	{
		"name" : "Ye Olde Whyte Harte",
		"category" : "British",
		"review_count" : 5,
		"rating" : 3.5,
		"location" : {
			"latitude" : 50.914227,
			"longtitude" : -1.270916
		}
	},
	{
		"name" : "Diamond Pizza And Kebab",
		"category" : "null",
		"review_count" : 8,
		"rating" : 3.5,
		"location" : {
			"latitude" : 50.924156,
			"longtitude" : -1.375908
		}
	},
	{
		"name" : "Lucky 8",
		"category" : "Chinese,Fast food,British,Asian",
		"review_count" : 11,
		"rating" : 3.5,
		"location" : {
			"latitude" : 50.945164,
			"longtitude" : -1.462623
		}
	},
	{
		"name" : "Chows Dynasty",
		"category" : "Chinese,Asian",
		"review_count" : 34,
		"rating" : 3.5,
		"location" : {
			"latitude" : 50.864983,
			"longtitude" : -1.290543
		}
	},
	{
		"name" : "The Avenue",
		"category" : "Chinese,Asian,Fast food",
		"review_count" : 11,
		"rating" : 3.5,
		"location" : {
			"latitude" : 50.919037,
			"longtitude" : -1.404332
		}
	},
	{
		"name" : "The Cork and Cheese Company",
		"category" : "Cafe,European,Delicatessen",
		"review_count" : 13,
		"rating" : 4,
		"location" : {
			"latitude" : 50.87215,
			"longtitude" : -1.269594
		}
	},
	{
		"name" : "The Tramstop Bar & Kitchen",
		"category" : "Pub",
		"review_count" : 2,
		"rating" : 4,
		"location" : {
			"latitude" : 50.926373,
			"longtitude" : -1.391699
		}
	},
	{
		"name" : "Kara",
		"category" : "Turkish,Mediterranean,Middle Eastern,Persian,Halal",
		"review_count" : 28,
		"rating" : 4,
		"location" : {
			"latitude" : 50.89972,
			"longtitude" : -1.403993
		}
	},
	{
		"name" : "Cau",
		"category" : "null",
		"review_count" : 3,
		"rating" : 4,
		"location" : {
			"latitude" : 50.90391,
			"longtitude" : -1.407152
		}
	},
	{
		"name" : "Feasters LTD",
		"category" : "null",
		"review_count" : 3,
		"rating" : 3.5,
		"location" : {
			"latitude" : 50.921005,
			"longtitude" : -1.431805
		}
	},
	{
		"name" : "The Chippy",
		"category" : "null",
		"review_count" : 5,
		"rating" : 3.5,
		"location" : {
			"latitude" : 50.93109,
			"longtitude" : -1.425165
		}
	},
	{
		"name" : "Tandoori Station",
		"category" : "Indian,Fast food,Asian,Halal",
		"review_count" : 17,
		"rating" : 4,
		"location" : {
			"latitude" : null,
			"longtitude" : null
		}
	},
	{
		"name" : "The Welcome Inn",
		"category" : "British",
		"review_count" : 8,
		"rating" : 4,
		"location" : {
			"latitude" : null,
			"longtitude" : null
		}
	},
	{
		"name" : "Jolly Friar",
		"category" : "null",
		"review_count" : 8,
		"rating" : 4,
		"location" : {
			"latitude" : 50.8747,
			"longtitude" : -1.354713
		}
	},
	{
		"name" : "Alexanda's Restaurant & Bespoke Deli",
		"category" : "null",
		"review_count" : 7,
		"rating" : 4.5,
		"location" : {
			"latitude" : 50.884953,
			"longtitude" : -1.302309
		}
	},
	{
		"name" : "The Cleavland Public House",
		"category" : "Pub",
		"review_count" : 3,
		"rating" : 4.5,
		"location" : {
			"latitude" : 50.96693,
			"longtitude" : -1.351603
		}
	},
	{
		"name" : "Shapla Tandoori Takeaway",
		"category" : "Indian",
		"review_count" : 5,
		"rating" : 4,
		"location" : {
			"latitude" : 50.91513,
			"longtitude" : -1.487344
		}
	},
	{
		"name" : "Pizza Box",
		"category" : "null",
		"review_count" : 4,
		"rating" : 4,
		"location" : {
			"latitude" : 50.93819,
			"longtitude" : -1.380058
		}
	},
	{
		"name" : "Wings",
		"category" : "null",
		"review_count" : 5,
		"rating" : 4,
		"location" : {
			"latitude" : 50.933376,
			"longtitude" : -1.444472
		}
	},
	{
		"name" : "Goblets",
		"category" : "Pub",
		"review_count" : 11,
		"rating" : 4,
		"location" : {
			"latitude" : 50.90669,
			"longtitude" : -1.40454
		}
	},
	{
		"name" : "Roosters Piri Piri",
		"category" : "Fast food,Vegetarian Friendly",
		"review_count" : 18,
		"rating" : 3.5,
		"location" : {
			"latitude" : 50.92642,
			"longtitude" : -1.392203
		}
	},
	{
		"name" : "Old Farmhouse - Hungry Horse",
		"category" : "British,Pub",
		"review_count" : 114,
		"rating" : 3.5,
		"location" : {
			"latitude" : 50.91733,
			"longtitude" : -1.502607
		}
	},
	{
		"name" : "Bright Water Inn Southampton J D Wetherspoon",
		"category" : "Indian,British,Pub",
		"review_count" : 51,
		"rating" : 3.5,
		"location" : {
			"latitude" : 50.91875,
			"longtitude" : -1.429431
		}
	},
	{
		"name" : "The Dolphin",
		"category" : "British,Pub",
		"review_count" : 107,
		"rating" : 3.5,
		"location" : {
			"latitude" : 50.914257,
			"longtitude" : -1.27068
		}
	},
	{
		"name" : "New Jade Palace",
		"category" : "Chinese",
		"review_count" : 6,
		"rating" : 4,
		"location" : {
			"latitude" : null,
			"longtitude" : null
		}
	},
	{
		"name" : "The Park Gate Tandoori",
		"category" : "Indian,Asian,Eastern European",
		"review_count" : 66,
		"rating" : 3,
		"location" : {
			"latitude" : 50.874798,
			"longtitude" : -1.266031
		}
	},
	{
		"name" : "Pizza Hut",
		"category" : "Italian,Pizza",
		"review_count" : 56,
		"rating" : 3.5,
		"location" : {
			"latitude" : null,
			"longtitude" : null
		}
	},
	{
		"name" : "Bedfords Arms Southampton",
		"category" : "British,Pub",
		"review_count" : 25,
		"rating" : 3.5,
		"location" : {
			"latitude" : 50.91221,
			"longtitude" : -1.406082
		}
	},
	{
		"name" : "The Slug And Lettuce",
		"category" : "British,Pub",
		"review_count" : 137,
		"rating" : 3.5,
		"location" : {
			"latitude" : 50.906193,
			"longtitude" : -1.404641
		}
	},
	{
		"name" : "Panda",
		"category" : "Chinese,Asian",
		"review_count" : 44,
		"rating" : 3.5,
		"location" : {
			"latitude" : 50.91204,
			"longtitude" : -1.406034
		}
	},
	{
		"name" : "Tosca's Ristorante Italiano",
		"category" : "Italian",
		"review_count" : 117,
		"rating" : 4,
		"location" : {
			"latitude" : 50.90892,
			"longtitude" : -1.41199
		}
	},
	{
		"name" : "St Marys",
		"category" : "null",
		"review_count" : 3,
		"rating" : 4.5,
		"location" : {
			"latitude" : 50.906734,
			"longtitude" : -1.390595
		}
	},
	{
		"name" : "moon river",
		"category" : "Chinese",
		"review_count" : 3,
		"rating" : 4.5,
		"location" : {
			"latitude" : 50.92682,
			"longtitude" : -1.391107
		}
	},
	{
		"name" : "Pizza Place",
		"category" : "null",
		"review_count" : 2,
		"rating" : 4,
		"location" : {
			"latitude" : 50.92584,
			"longtitude" : -1.364358
		}
	},
	{
		"name" : "The Wine Bar And Bistro",
		"category" : "",
		"review_count" : 1,
		"rating" : 4,
		"location" : {
			"latitude" : null,
			"longtitude" : null
		}
	},
	{
		"name" : "Woolston Cafe",
		"category" : "null",
		"review_count" : 1,
		"rating" : 4,
		"location" : {
			"latitude" : 50.897972,
			"longtitude" : -1.377404
		}
	},
	{
		"name" : "La Mexicana",
		"category" : "Mexican",
		"review_count" : 1,
		"rating" : 4,
		"location" : {
			"latitude" : 50.911987,
			"longtitude" : -1.403797
		}
	},
	{
		"name" : "Le Jardin Restuarant",
		"category" : "British",
		"review_count" : 1,
		"rating" : 4,
		"location" : {
			"latitude" : 50.88124,
			"longtitude" : -1.44193
		}
	},
	{
		"name" : "China Wok",
		"category" : "null",
		"review_count" : 1,
		"rating" : 4,
		"location" : {
			"latitude" : 50.905754,
			"longtitude" : -1.396625
		}
	},
	{
		"name" : "Subway",
		"category" : "null",
		"review_count" : 2,
		"rating" : 4,
		"location" : {
			"latitude" : 50.90361,
			"longtitude" : -1.416407
		}
	},
	{
		"name" : "Marks and Spencers",
		"category" : "null",
		"review_count" : 1,
		"rating" : 4,
		"location" : {
			"latitude" : null,
			"longtitude" : null
		}
	},
	{
		"name" : "The Two Eyes Burger Bar",
		"category" : "null",
		"review_count" : 1,
		"rating" : 4,
		"location" : {
			"latitude" : 50.920494,
			"longtitude" : -1.431442
		}
	},
	{
		"name" : "Oriental Chinese Takeawy",
		"category" : "null",
		"review_count" : 1,
		"rating" : 4,
		"location" : {
			"latitude" : 50.926674,
			"longtitude" : -1.391188
		}
	},
	{
		"name" : "Label Food",
		"category" : "null",
		"review_count" : 1,
		"rating" : 4,
		"location" : {
			"latitude" : 50.931107,
			"longtitude" : -1.400426
		}
	},
	{
		"name" : "Dominica kitchen",
		"category" : "null",
		"review_count" : 1,
		"rating" : 4,
		"location" : {
			"latitude" : 50.90372,
			"longtitude" : -1.396463
		}
	},
	{
		"name" : "Taj Mahal Indian Takeaway",
		"category" : "null",
		"review_count" : 1,
		"rating" : 4,
		"location" : {
			"latitude" : 50.93452,
			"longtitude" : -1.418097
		}
	},
	{
		"name" : "Ted's Fish & Chips",
		"category" : "Fast food,Turkish",
		"review_count" : 1,
		"rating" : 4,
		"location" : {
			"latitude" : 50.911873,
			"longtitude" : -1.405778
		}
	},
	{
		"name" : "Papajohns pizza southampton",
		"category" : "Pizza",
		"review_count" : 1,
		"rating" : 4,
		"location" : {
			"latitude" : 50.954166,
			"longtitude" : -1.212747
		}
	},
	{
		"name" : "McDonald's",
		"category" : "null",
		"review_count" : 6,
		"rating" : 3.5,
		"location" : {
			"latitude" : 50.91878,
			"longtitude" : -1.428538
		}
	},
	{
		"name" : "Smart Fish Bar",
		"category" : "Fast food,Seafood,British",
		"review_count" : 15,
		"rating" : 3.5,
		"location" : {
			"latitude" : 50.86871,
			"longtitude" : -1.28804
		}
	},
	{
		"name" : "Portobello Pizza",
		"category" : "null",
		"review_count" : 8,
		"rating" : 4,
		"location" : {
			"latitude" : 50.917194,
			"longtitude" : -1.426489
		}
	},
	{
		"name" : "The Mystery Of Bengal",
		"category" : "Asian",
		"review_count" : 13,
		"rating" : 4,
		"location" : {
			"latitude" : 50.914627,
			"longtitude" : -1.336595
		}
	},
	{
		"name" : "E-Sun-Way",
		"category" : "null",
		"review_count" : 5,
		"rating" : 4,
		"location" : {
			"latitude" : 50.938232,
			"longtitude" : -1.392773
		}
	},
	{
		"name" : "Domino's Pizza",
		"category" : "Pizza",
		"review_count" : 5,
		"rating" : 4,
		"location" : {
			"latitude" : 50.919727,
			"longtitude" : -1.491526
		}
	},
	{
		"name" : "The Vineyard Restaurant",
		"category" : "European,British",
		"review_count" : 26,
		"rating" : 4,
		"location" : {
			"latitude" : 50.92285,
			"longtitude" : -1.303155
		}
	},
	{
		"name" : "South Ocean",
		"category" : "Seafood",
		"review_count" : 6,
		"rating" : 4.5,
		"location" : {
			"latitude" : 50.939686,
			"longtitude" : -1.379258
		}
	},
	{
		"name" : "Travellers Restaurant",
		"category" : "",
		"review_count" : 16,
		"rating" : 3.5,
		"location" : {
			"latitude" : 50.85611,
			"longtitude" : -1.38932
		}
	},
	{
		"name" : "Fast Wok",
		"category" : "Chinese",
		"review_count" : 6,
		"rating" : 4,
		"location" : {
			"latitude" : 50.932747,
			"longtitude" : -1.508902
		}
	},
	{
		"name" : "Red Lion Public House",
		"category" : "Pub",
		"review_count" : 9,
		"rating" : 3.5,
		"location" : {
			"latitude" : 50.914284,
			"longtitude" : -1.358974
		}
	},
	{
		"name" : "West End Tandoori",
		"category" : "Indian",
		"review_count" : 6,
		"rating" : 3.5,
		"location" : {
			"latitude" : 50.927498,
			"longtitude" : -1.335955
		}
	},
	{
		"name" : "The curry house",
		"category" : "Indian,Asian",
		"review_count" : 4,
		"rating" : 4,
		"location" : {
			"latitude" : 50.90954,
			"longtitude" : -1.360365
		}
	},
	{
		"name" : "The New Gourmet",
		"category" : "null",
		"review_count" : 4,
		"rating" : 4,
		"location" : {
			"latitude" : 50.909245,
			"longtitude" : -1.417399
		}
	},
	{
		"name" : "Afritopia Restaurant",
		"category" : "African",
		"review_count" : 7,
		"rating" : 4,
		"location" : {
			"latitude" : 50.905422,
			"longtitude" : -1.396511
		}
	},
	{
		"name" : "Subway - West Quay Dining",
		"category" : "null",
		"review_count" : 5,
		"rating" : 3.5,
		"location" : {
			"latitude" : 50.9035,
			"longtitude" : -1.412546
		}
	},
	{
		"name" : "Costa Coffee",
		"category" : "Cafe,Fast food",
		"review_count" : 45,
		"rating" : 3,
		"location" : {
			"latitude" : 50.91319,
			"longtitude" : -1.40496
		}
	},
	{
		"name" : "Hin Wong",
		"category" : "null",
		"review_count" : 5,
		"rating" : 3,
		"location" : {
			"latitude" : 50.8749,
			"longtitude" : -1.354821
		}
	},
	{
		"name" : "Finiki Foods",
		"category" : "null",
		"review_count" : 7,
		"rating" : 3.5,
		"location" : {
			"latitude" : 50.908607,
			"longtitude" : -1.411988
		}
	},
	{
		"name" : "Quality Kebabs",
		"category" : "null",
		"review_count" : 3,
		"rating" : 3.5,
		"location" : {
			"latitude" : 50.914272,
			"longtitude" : -1.423051
		}
	},
	{
		"name" : "Hamble Lane Fish Bar",
		"category" : "Seafood",
		"review_count" : 2,
		"rating" : 4,
		"location" : {
			"latitude" : 50.86212,
			"longtitude" : -1.32921
		}
	},
	{
		"name" : "The Little Fryer",
		"category" : "Fast food,Seafood",
		"review_count" : 15,
		"rating" : 3.5,
		"location" : {
			"latitude" : null,
			"longtitude" : null
		}
	},
	{
		"name" : "Cafe Giardino",
		"category" : "Cafe,British",
		"review_count" : 29,
		"rating" : 3.5,
		"location" : {
			"latitude" : 50.903423,
			"longtitude" : -1.403636
		}
	},
	{
		"name" : "New Clock Inn - Hungry Horse",
		"category" : "British,Pub",
		"review_count" : 64,
		"rating" : 3.5,
		"location" : {
			"latitude" : null,
			"longtitude" : null
		}
	},
	{
		"name" : "Golden Dragon",
		"category" : "null",
		"review_count" : 4,
		"rating" : 3.5,
		"location" : {
			"latitude" : null,
			"longtitude" : null
		}
	},
	{
		"name" : "Plaice on the Green",
		"category" : "Fast food",
		"review_count" : 14,
		"rating" : 3.5,
		"location" : {
			"latitude" : 50.876656,
			"longtitude" : -1.288386
		}
	},
	{
		"name" : "Shahi Tandoori",
		"category" : "Indian",
		"review_count" : 5,
		"rating" : 4,
		"location" : {
			"latitude" : 50.919468,
			"longtitude" : -1.397894
		}
	},
	{
		"name" : "China Garden",
		"category" : "Chinese,Fast food,Asian",
		"review_count" : 14,
		"rating" : 3.5,
		"location" : {
			"latitude" : 50.924824,
			"longtitude" : -1.437759
		}
	},
	{
		"name" : "Pizzazz Pizza",
		"category" : "Pizza,Italian",
		"review_count" : 6,
		"rating" : 3.5,
		"location" : {
			"latitude" : 50.938267,
			"longtitude" : -1.391729
		}
	},
	{
		"name" : "Massala",
		"category" : "Indian",
		"review_count" : 2,
		"rating" : 3.5,
		"location" : {
			"latitude" : null,
			"longtitude" : null
		}
	},
	{
		"name" : "Roosters Piri Piri Chicken",
		"category" : "Fast food",
		"review_count" : 46,
		"rating" : 3,
		"location" : {
			"latitude" : 50.92038,
			"longtitude" : -1.430621
		}
	},
	{
		"name" : "Diamond Pizza And Kebab",
		"category" : "null",
		"review_count" : 8,
		"rating" : 3.5,
		"location" : {
			"latitude" : 50.924156,
			"longtitude" : -1.375908
		}
	},
	{
		"name" : "New Forest Inn",
		"category" : "British,Pub",
		"review_count" : 43,
		"rating" : 3.5,
		"location" : {
			"latitude" : 50.89226,
			"longtitude" : -1.523129
		}
	},
	{
		"name" : "Elements Restaurant & Bar",
		"category" : "European",
		"review_count" : 36,
		"rating" : 3.5,
		"location" : {
			"latitude" : 50.90479,
			"longtitude" : -1.414653
		}
	},
	{
		"name" : "velsheda",
		"category" : "British",
		"review_count" : 2,
		"rating" : 3.5,
		"location" : {
			"latitude" : null,
			"longtitude" : null
		}
	},
	{
		"name" : "Papu Restaurant",
		"category" : "Polish,European",
		"review_count" : 3,
		"rating" : 3.5,
		"location" : {
			"latitude" : 50.912804,
			"longtitude" : -1.421711
		}
	},
	{
		"name" : "Super Pizza",
		"category" : "null",
		"review_count" : 4,
		"rating" : 3.5,
		"location" : {
			"latitude" : 50.912376,
			"longtitude" : -1.399805
		}
	},
	{
		"name" : "Sals Kebab House",
		"category" : "null",
		"review_count" : 7,
		"rating" : 3.5,
		"location" : {
			"latitude" : 50.911312,
			"longtitude" : -1.399465
		}
	},
	{
		"name" : "Happy Palace",
		"category" : "null",
		"review_count" : 4,
		"rating" : 3.5,
		"location" : {
			"latitude" : 50.918827,
			"longtitude" : -1.486168
		}
	},
	{
		"name" : "The Glen",
		"category" : "British,Pub",
		"review_count" : 52,
		"rating" : 3.5,
		"location" : {
			"latitude" : 50.85122,
			"longtitude" : -1.404231
		}
	},
	{
		"name" : "Shah Faisal",
		"category" : "Indian,Asian",
		"review_count" : 28,
		"rating" : 3.5,
		"location" : {
			"latitude" : 50.91449,
			"longtitude" : -1.36233
		}
	},
	{
		"name" : "Best Kebab House",
		"category" : "null",
		"review_count" : 3,
		"rating" : 3.5,
		"location" : {
			"latitude" : 50.91954,
			"longtitude" : -1.398411
		}
	},
	{
		"name" : "Manzil Tandori",
		"category" : "Indian,Asian,Eastern European",
		"review_count" : 42,
		"rating" : 3.5,
		"location" : {
			"latitude" : 50.91501,
			"longtitude" : -1.39737
		}
	},
	{
		"name" : "The Restaurant Marks and Spencer",
		"category" : "British,Cafe,Gluten Free Options",
		"review_count" : 69,
		"rating" : 2.5,
		"location" : {
			"latitude" : 50.902935,
			"longtitude" : -1.407254
		}
	},
	{
		"name" : "M & S",
		"category" : "British",
		"review_count" : 2,
		"rating" : 2.5,
		"location" : {
			"latitude" : 52.20543,
			"longtitude" : -0.90187
		}
	},
	{
		"name" : "Pizza Go Go",
		"category" : "null",
		"review_count" : 3,
		"rating" : 3.5,
		"location" : {
			"latitude" : 50.913902,
			"longtitude" : -1.446437
		}
	},
	{
		"name" : "Zest Restaurant",
		"category" : "British,International",
		"review_count" : 71,
		"rating" : 3.5,
		"location" : {
			"latitude" : 50.91932,
			"longtitude" : -1.21464
		}
	},
	{
		"name" : "Spice",
		"category" : "Indian",
		"review_count" : 7,
		"rating" : 4,
		"location" : {
			"latitude" : 50.917458,
			"longtitude" : -1.374752
		}
	},
	{
		"name" : "Lowford Balti Indian Take Away",
		"category" : "Asian,Indian,Fast food",
		"review_count" : 12,
		"rating" : 3.5,
		"location" : {
			"latitude" : 50.889297,
			"longtitude" : -1.329332
		}
	},
	{
		"name" : "Fountain Court Hotel and Restaurant",
		"category" : "null",
		"review_count" : 7,
		"rating" : 3.5,
		"location" : {
			"latitude" : 50.85574,
			"longtitude" : -1.392405
		}
	},
	{
		"name" : "Chives",
		"category" : "null",
		"review_count" : 5,
		"rating" : 3,
		"location" : {
			"latitude" : 50.87536,
			"longtitude" : -1.281735
		}
	},
	{
		"name" : "Harvester",
		"category" : "British",
		"review_count" : 26,
		"rating" : 3,
		"location" : {
			"latitude" : 50.96832,
			"longtitude" : -1.35056
		}
	},
	{
		"name" : "The Two Brothers",
		"category" : "Mexican,British,Pub,Vegetarian Friendly",
		"review_count" : 110,
		"rating" : 3,
		"location" : {
			"latitude" : 50.932438,
			"longtitude" : -1.352935
		}
	},
	{
		"name" : "The Cricketers Arms",
		"category" : "null",
		"review_count" : 7,
		"rating" : 3.5,
		"location" : {
			"latitude" : 50.88958,
			"longtitude" : -1.31634
		}
	},
	{
		"name" : "The Frog and Parrot Pub",
		"category" : "British,Pub",
		"review_count" : 55,
		"rating" : 3,
		"location" : {
			"latitude" : 50.908344,
			"longtitude" : -1.40463
		}
	},
	{
		"name" : "The Frog and Parrot Pub",
		"category" : "British,Pub",
		"review_count" : 55,
		"rating" : 3,
		"location" : {
			"latitude" : 50.908344,
			"longtitude" : -1.40463
		}
	},
	{
		"name" : "Bombay Delight",
		"category" : "null",
		"review_count" : 9,
		"rating" : 3,
		"location" : {
			"latitude" : 50.903484,
			"longtitude" : -1.346715
		}
	},
	{
		"name" : "Subway",
		"category" : "Fast food",
		"review_count" : 16,
		"rating" : 3.5,
		"location" : {
			"latitude" : 50.901844,
			"longtitude" : -1.403274
		}
	},
	{
		"name" : "Captains Place",
		"category" : "Pub,British",
		"review_count" : 9,
		"rating" : 3.5,
		"location" : {
			"latitude" : 50.89868,
			"longtitude" : -1.396465
		}
	},
	{
		"name" : "The Treasury",
		"category" : "British",
		"review_count" : 42,
		"rating" : 3.5,
		"location" : {
			"latitude" : 50.899475,
			"longtitude" : -1.403962
		}
	},
	{
		"name" : "Pepe's piri piri",
		"category" : "Healthy",
		"review_count" : 15,
		"rating" : 3.5,
		"location" : {
			"latitude" : 50.92456,
			"longtitude" : -1.39362
		}
	},
	{
		"name" : "Taj Tandoori",
		"category" : "Indian",
		"review_count" : 2,
		"rating" : 4,
		"location" : {
			"latitude" : 50.91504,
			"longtitude" : -1.397455
		}
	},
	{
		"name" : "Domino's Pizza",
		"category" : "Italian,Pizza",
		"review_count" : 6,
		"rating" : 3,
		"location" : {
			"latitude" : 50.91449,
			"longtitude" : -1.36233
		}
	},
	{
		"name" : "The Boathouse Cafe",
		"category" : "Cafe,British",
		"review_count" : 37,
		"rating" : 3,
		"location" : {
			"latitude" : 50.883045,
			"longtitude" : -1.299748
		}
	},
	{
		"name" : "Chilli Tandoori",
		"category" : "Indian,Asian",
		"review_count" : 17,
		"rating" : 3.5,
		"location" : {
			"latitude" : null,
			"longtitude" : null
		}
	},
	{
		"name" : "Star Grill And Pizza",
		"category" : "Fast food,Turkish",
		"review_count" : 13,
		"rating" : 3,
		"location" : {
			"latitude" : 50.937557,
			"longtitude" : -1.446938
		}
	},
	{
		"name" : "priyo",
		"category" : "Indian",
		"review_count" : 2,
		"rating" : 3,
		"location" : {
			"latitude" : 50.92199,
			"longtitude" : -1.34411
		}
	},
	{
		"name" : "Upper Crust",
		"category" : "null",
		"review_count" : 5,
		"rating" : 3,
		"location" : {
			"latitude" : null,
			"longtitude" : null
		}
	},
	{
		"name" : "Golden Pond",
		"category" : "null",
		"review_count" : 2,
		"rating" : 3.5,
		"location" : {
			"latitude" : 50.93268,
			"longtitude" : -1.44635
		}
	},
	{
		"name" : "Golden Bengal",
		"category" : "null",
		"review_count" : 1,
		"rating" : 3,
		"location" : {
			"latitude" : 50.92451,
			"longtitude" : -1.381727
		}
	},
	{
		"name" : "H Palace Restaurant & Takeaway",
		"category" : "Chinese",
		"review_count" : 6,
		"rating" : 3,
		"location" : {
			"latitude" : 50.924633,
			"longtitude" : -1.375662
		}
	},
	{
		"name" : "Harvester",
		"category" : "null",
		"review_count" : 9,
		"rating" : 4,
		"location" : {
			"latitude" : null,
			"longtitude" : null
		}
	},